[
  {
    "int_id": 2215,
    "ref_id": "103111",
    "name": "7. septembra",
    "center": 1,
    "location": { "lat": 46.09000451923703, "lon": 14.508593236012453 }
  },
  {
    "int_id": 2081,
    "ref_id": "103031",
    "name": "AMZS",
    "center": 1,
    "location": { "lat": 46.07766813292732, "lon": 14.511995623112426 }
  },
  {
    "int_id": 2148,
    "ref_id": "204211",
    "name": "Agrokombinatska",
    "center": 1,
    "location": { "lat": 46.06914110077971, "lon": 14.60525201217023 }
  },
  {
    "int_id": 4741,
    "ref_id": "204213",
    "name": "Agrokombinatska",
    "center": 1,
    "location": { "lat": 46.06979825049202, "lon": 14.603284472460851 }
  },
  {
    "int_id": 4455,
    "ref_id": "600021",
    "name": "Ajdovščina",
    "center": 1,
    "location": { "lat": 46.05387991517537, "lon": 14.50430084504449 }
  },
  {
    "int_id": 2022,
    "ref_id": "503031",
    "name": "Akademija",
    "center": 1,
    "location": { "lat": 46.03221425308668, "lon": 14.529243044790656 }
  },
  {
    "int_id": 1932,
    "ref_id": "803021",
    "name": "Aleja",
    "center": 1,
    "location": { "lat": 46.076866215443076, "lon": 14.482340632692761 }
  },
  {
    "int_id": 3335,
    "ref_id": "502013",
    "name": "Ambrožev trg",
    "center": 1,
    "location": { "lat": 46.04978556588933, "lon": 14.51689987831737 }
  },
  { "int_id": 4226, "ref_id": "528151", "name": "Ambrus", "center": 1 },
  {
    "int_id": 1861,
    "ref_id": "804171",
    "name": "Andreja Bitenca",
    "center": 1,
    "location": { "lat": 46.085842770961655, "lon": 14.464845305416887 }
  },
  { "int_id": 4420, "ref_id": "999871", "name": "Anžon", "center": 1 },
  {
    "int_id": 2131,
    "ref_id": "303061",
    "name": "Archinetova",
    "center": 1,
    "location": { "lat": 46.05627554910106, "lon": 14.555265263552474 }
  },
  {
    "int_id": 2087,
    "ref_id": "101051",
    "name": "Astra",
    "center": 1,
    "location": { "lat": 46.06486771851142, "lon": 14.508719569957469 }
  },
  {
    "int_id": 1949,
    "ref_id": "602051",
    "name": "Aškerčeva",
    "center": 1,
    "location": { "lat": 46.04665015429386, "lon": 14.498670633699984 }
  },
  {
    "int_id": 2323,
    "ref_id": "604021",
    "name": "BARJE",
    "center": 1,
    "location": { "lat": 46.01317814359808, "lon": 14.512794148018846 }
  },
  {
    "int_id": 4459,
    "ref_id": "603181",
    "name": "BARJE P+R",
    "center": 1,
    "location": { "lat": 46.02693959587595, "lon": 14.49998716615205 }
  },
  {
    "int_id": 2234,
    "ref_id": "204171",
    "name": "BERIČEVO",
    "center": 1,
    "location": { "lat": 46.0901825984857, "lon": 14.613129646840516 }
  },
  {
    "int_id": 3331,
    "ref_id": "704041",
    "name": "BOKALCE",
    "center": 1,
    "location": { "lat": 46.05154150741969, "lon": 14.448501711378492 }
  },
  {
    "int_id": 2332,
    "ref_id": "204121",
    "name": "BRNČIČEVA",
    "center": 1,
    "location": { "lat": 46.09375899900436, "lon": 14.55580156164927 }
  },
  {
    "int_id": 1891,
    "ref_id": "804121",
    "name": "BROD",
    "center": 1,
    "location": { "lat": 46.115525778591405, "lon": 14.462730320511326 }
  },
  {
    "int_id": 4452,
    "ref_id": "203251",
    "name": "BTC-ATLANTIS",
    "center": 1,
    "location": { "lat": 46.06339520770949, "lon": 14.548255787415705 }
  },
  {
    "int_id": 2250,
    "ref_id": "203141",
    "name": "BTC-Emporium",
    "center": 1,
    "location": { "lat": 46.062100361282866, "lon": 14.544974049557911 }
  },
  {
    "int_id": 2252,
    "ref_id": "203131",
    "name": "BTC-Kolosej",
    "center": 1,
    "location": { "lat": 46.06572371839756, "lon": 14.548493114953807 }
  },
  {
    "int_id": 4450,
    "ref_id": "203241",
    "name": "BTC-Merkur",
    "center": 1,
    "location": { "lat": 46.06353438445197, "lon": 14.547025204584214 }
  },
  {
    "int_id": 2248,
    "ref_id": "203121",
    "name": "BTC-tržnica",
    "center": 1,
    "location": { "lat": 46.065563856565056, "lon": 14.544090034792461 }
  },
  {
    "int_id": 2246,
    "ref_id": "203111",
    "name": "BTC-uprava",
    "center": 1,
    "location": { "lat": 46.06831688243069, "lon": 14.541933764017381 }
  },
  {
    "int_id": 4372,
    "ref_id": "103211",
    "name": "Baragova",
    "center": 1,
    "location": { "lat": 46.07630383574961, "lon": 14.5154895945424 }
  },
  {
    "int_id": 3571,
    "ref_id": "604023",
    "name": "Barje",
    "center": 1,
    "location": { "lat": 46.014879512241045, "lon": 14.512046341123776 }
  },
  {
    "int_id": 1977,
    "ref_id": "600011",
    "name": "Bavarski dvor",
    "center": 1,
    "location": { "lat": 46.056768095920944, "lon": 14.505681241969835 }
  },
  {
    "int_id": 3880,
    "ref_id": "725091",
    "name": "Belica",
    "center": 1,
    "location": { "lat": 46.068680050013235, "lon": 14.35189472675856 }
  },
  {
    "int_id": 2228,
    "ref_id": "204141",
    "name": "Belinka",
    "center": 1,
    "location": { "lat": 46.09143195882674, "lon": 14.574853386552935 }
  },
  {
    "int_id": 3620,
    "ref_id": "546021",
    "name": "Benat",
    "center": 1,
    "location": { "lat": 45.94215160706867, "lon": 14.643637764029608 }
  },
  {
    "int_id": 3452,
    "ref_id": "405021",
    "name": "Besnica",
    "center": 1,
    "location": { "lat": 46.036673171904035, "lon": 14.650775706423413 }
  },
  {
    "int_id": 3446,
    "ref_id": "405051",
    "name": "Besnica ambulanta",
    "center": 1,
    "location": { "lat": 46.0332896014684, "lon": 14.687266324578209 }
  },
  {
    "int_id": 3444,
    "ref_id": "405061",
    "name": "Besnica kamnolom",
    "center": 1,
    "location": { "lat": 46.020480473742005, "lon": 14.710176837762225 }
  },
  {
    "int_id": 3450,
    "ref_id": "405031",
    "name": "Besnica šola",
    "center": 1,
    "location": { "lat": 46.03552640672573, "lon": 14.657514361415835 }
  },
  { "int_id": 4026, "ref_id": "765031", "name": "Bevke", "center": 1 },
  {
    "int_id": 1874,
    "ref_id": "101031",
    "name": "Bežigrad",
    "center": 1,
    "location": { "lat": 46.06378333645877, "lon": 14.511686008210848 }
  },
  { "int_id": 4006, "ref_id": "756101", "name": "Bistra", "center": 1 },
  {
    "int_id": 3364,
    "ref_id": "404121",
    "name": "Bizovik",
    "center": 1,
    "location": { "lat": 46.03751476976846, "lon": 14.571124098148147 }
  },
  { "int_id": 4025, "ref_id": "765041", "name": "Blatna Brezovica", "center": 1 },
  {
    "int_id": 3448,
    "ref_id": "405041",
    "name": "Blaževo",
    "center": 1,
    "location": { "lat": 46.032159853065934, "lon": 14.678072963564603 }
  },
  {
    "int_id": 3973,
    "ref_id": "701011",
    "name": "Bleiweisova",
    "center": 1,
    "location": { "lat": 46.05296056214894, "lon": 14.498126802442737 }
  },
  { "int_id": 3995, "ref_id": "707011", "name": "Blekova vas", "center": 1 },
  {
    "int_id": 3798,
    "ref_id": "504121",
    "name": "Bobrova",
    "center": 1,
    "location": { "lat": 46.024091914029825, "lon": 14.532342445599557 }
  },
  { "int_id": 4133, "ref_id": "508021", "name": "Boga vas", "center": 1 },
  {
    "int_id": 1987,
    "ref_id": "402041",
    "name": "Bolnica",
    "center": 1,
    "location": { "lat": 46.05424691116968, "lon": 14.528094822607954 }
  },
  {
    "int_id": 1870,
    "ref_id": "802041",
    "name": "Bolnica P. Držaja",
    "center": 1,
    "location": { "lat": 46.067452139369124, "lon": 14.485887440051238 }
  },
  {
    "int_id": 2098,
    "ref_id": "703101",
    "name": "Bonifacija",
    "center": 1,
    "location": { "lat": 46.03967933139449, "lon": 14.472658396624219 }
  },
  { "int_id": 4012, "ref_id": "756061", "name": "Borovnica K", "center": 1 },
  { "int_id": 4024, "ref_id": "756071", "name": "Borovnica Merc.", "center": 1 },
  { "int_id": 4014, "ref_id": "756051", "name": "Borovnica most", "center": 1 },
  {
    "int_id": 3526,
    "ref_id": "103191",
    "name": "Božičeva",
    "center": 1,
    "location": { "lat": 46.075734582617265, "lon": 14.52081986143254 }
  },
  {
    "int_id": 1880,
    "ref_id": "203181",
    "name": "Bratislavska",
    "center": 1,
    "location": { "lat": 46.06614754675274, "lon": 14.551455532692609 }
  },
  {
    "int_id": 2238,
    "ref_id": "803161",
    "name": "Bratov Babnik",
    "center": 1,
    "location": { "lat": 46.07464824482815, "lon": 14.462778174841368 }
  },
  {
    "int_id": 2041,
    "ref_id": "803131",
    "name": "Bratov Učakar",
    "center": 1,
    "location": { "lat": 46.0697023365238, "lon": 14.473105078336687 }
  },
  {
    "int_id": 2203,
    "ref_id": "101061",
    "name": "Bratov Židan",
    "center": 1,
    "location": { "lat": 46.06530942887499, "lon": 14.502924744060973 }
  },
  {
    "int_id": 4467,
    "ref_id": "704023",
    "name": "Brdo",
    "center": 1,
    "location": { "lat": 46.04749979226308, "lon": 14.453602172298186 }
  },
  { "int_id": 4016, "ref_id": "756041", "name": "Breg pri Borovnici", "center": 1 },
  {
    "int_id": 3681,
    "ref_id": "615041",
    "name": "Brest",
    "center": 1,
    "location": { "lat": 45.9672345297926, "lon": 14.492195836245852 }
  },
  {
    "int_id": 3930,
    "ref_id": "715111",
    "name": "Brezje pri Dobrovi",
    "center": 1,
    "location": { "lat": 46.027411628856505, "lon": 14.346767667400124 }
  },
  {
    "int_id": 3928,
    "ref_id": "715101",
    "name": "Brezje pri Dobrovi And.",
    "center": 1,
    "location": { "lat": 46.03285507221346, "lon": 14.357014487555572 }
  },
  {
    "int_id": 2209,
    "ref_id": "103021",
    "name": "Brinje",
    "center": 1,
    "location": { "lat": 46.07676561013378, "lon": 14.505488714430387 }
  },
  {
    "int_id": 3905,
    "ref_id": "726021",
    "name": "Briše pri Polh.G.",
    "center": 1,
    "location": { "lat": 46.05834103253083, "lon": 14.303125245677078 }
  },
  {
    "int_id": 3907,
    "ref_id": "726031",
    "name": "Briše pri Polh.G.Koroš.",
    "center": 1,
    "location": { "lat": 46.04648433949033, "lon": 14.29738840971849 }
  },
  {
    "int_id": 3909,
    "ref_id": "726041",
    "name": "Briše pri Polh.G.M.Voda",
    "center": 1,
    "location": { "lat": 46.04775241544473, "lon": 14.278108409698229 }
  },
  { "int_id": 4710, "ref_id": "106053", "name": "Brnik PC zahod", "center": 1 },
  {
    "int_id": 2113,
    "ref_id": "303071",
    "name": "Brodarjev trg",
    "center": 1,
    "location": { "lat": 46.05441436747412, "lon": 14.553197153376795 }
  },
  {
    "int_id": 3549,
    "ref_id": "505091",
    "name": "Brvace",
    "center": 1,
    "location": { "lat": 45.96393944673868, "lon": 14.640358795224074 }
  },
  {
    "int_id": 4620,
    "ref_id": "826031",
    "name": "Bukovica Anzel",
    "center": 1,
    "location": { "lat": 46.17296753262799, "lon": 14.509049860640483 }
  },
  {
    "int_id": 3748,
    "ref_id": "826021",
    "name": "Bukovica Plevevc",
    "center": 1,
    "location": { "lat": 46.17684053101146, "lon": 14.50539669928074 }
  },
  {
    "int_id": 3915,
    "ref_id": "726071",
    "name": "Butajnova",
    "center": 1,
    "location": { "lat": 46.03304062327767, "lon": 14.236087240800977 }
  },
  {
    "int_id": 3911,
    "ref_id": "726051",
    "name": "Butajnova Setnik",
    "center": 1,
    "location": { "lat": 46.04479386849278, "lon": 14.268815374812503 }
  },
  {
    "int_id": 3913,
    "ref_id": "726061",
    "name": "Butajnova Čamernik",
    "center": 1,
    "location": { "lat": 46.04246211938619, "lon": 14.25919362993655 }
  },
  {
    "int_id": 3524,
    "ref_id": "103173",
    "name": "C. STOŽICE P+R",
    "center": 1,
    "location": { "lat": 46.079002879033766, "lon": 14.525178075323286 }
  },
  {
    "int_id": 4679,
    "ref_id": "704161",
    "name": "C. dveh cesarjev",
    "center": 1,
    "location": { "lat": 46.030526193722736, "lon": 14.480675234618438 }
  },
  {
    "int_id": 2198,
    "ref_id": "602011",
    "name": "Cankarjev dom",
    "center": 1,
    "location": { "lat": 46.05079502075095, "lon": 14.498315745829704 }
  },
  {
    "int_id": 2143,
    "ref_id": "204181",
    "name": "Center Zalog",
    "center": 1,
    "location": { "lat": 46.06088313712967, "lon": 14.613581470008269 }
  },
  {
    "int_id": 2226,
    "ref_id": "703021",
    "name": "Cesta XV",
    "center": 1,
    "location": { "lat": 46.04596001054351, "lon": 14.480797232435236 }
  },
  {
    "int_id": 2335,
    "ref_id": "104091",
    "name": "Cesta na Brod",
    "center": 1,
    "location": { "lat": 46.09662352023904, "lon": 14.546174143984674 }
  },
  {
    "int_id": 4729,
    "ref_id": "204351",
    "name": "Cesta na Kope",
    "center": 1,
    "location": { "lat": 46.074382906603475, "lon": 14.58318310726182 }
  },
  {
    "int_id": 2137,
    "ref_id": "304091",
    "name": "Cesta na Vevče",
    "center": 1,
    "location": { "lat": 46.0540123187434, "lon": 14.588953501960658 }
  },
  {
    "int_id": 4242,
    "ref_id": "703221",
    "name": "Cesta na Vrhovce",
    "center": 1,
    "location": { "lat": 46.0420918246905, "lon": 14.458810440685948 }
  },
  {
    "int_id": 2166,
    "ref_id": "404021",
    "name": "Cesta v Bizovik",
    "center": 1,
    "location": { "lat": 46.04462669723313, "lon": 14.570214596915806 }
  },
  {
    "int_id": 3515,
    "ref_id": "704151",
    "name": "Cesta v Gorice",
    "center": 1,
    "location": { "lat": 46.032296379300355, "lon": 14.464564324735228 }
  },
  {
    "int_id": 4720,
    "ref_id": "204271",
    "name": "Cesta v Kresnice",
    "center": 1,
    "location": { "lat": 46.07147691032398, "lon": 14.636065051995802 }
  },
  {
    "int_id": 4728,
    "ref_id": "204341",
    "name": "Cesta v Zajčjo Dobravo",
    "center": 1,
    "location": { "lat": 46.07265086371489, "lon": 14.591201314002587 }
  },
  {
    "int_id": 2176,
    "ref_id": "404071",
    "name": "Cesta v Zavoglje",
    "center": 1,
    "location": { "lat": 46.04027150784132, "lon": 14.602503234115792 }
  },
  {
    "int_id": 4178,
    "ref_id": "527011",
    "name": "Cesta/Dobrepolju",
    "center": 1,
    "location": { "lat": 45.85794863943733, "lon": 14.692668127641914 }
  },
  {
    "int_id": 2135,
    "ref_id": "304041",
    "name": "Chengdujska",
    "center": 1,
    "location": { "lat": 46.055185840160945, "lon": 14.565881025912072 }
  },
  {
    "int_id": 3547,
    "ref_id": "505081",
    "name": "Cikava",
    "center": 1,
    "location": { "lat": 45.96730238172206, "lon": 14.632278155449587 }
  },
  {
    "int_id": 3314,
    "ref_id": "502021",
    "name": "Cukrarna",
    "center": 1,
    "location": { "lat": 46.04837262357163, "lon": 14.519478211799866 }
  },
  {
    "int_id": 3813,
    "ref_id": "746021",
    "name": "D. Brezovica Baša",
    "center": 1,
    "location": { "lat": 45.953301927065695, "lon": 14.423850346210575 }
  },
  {
    "int_id": 3811,
    "ref_id": "746031",
    "name": "D. Brezovica Landovec",
    "center": 1,
    "location": { "lat": 45.94991813175574, "lon": 14.428952756548135 }
  },
  {
    "int_id": 2099,
    "ref_id": "704011",
    "name": "D. MOST P+R",
    "center": 1,
    "location": { "lat": 46.036667786575066, "lon": 14.462899023411545 }
  },
  {
    "int_id": 3903,
    "ref_id": "725111",
    "name": "D.vas pri Polh.G.",
    "center": 1,
    "location": { "lat": 46.06039349035594, "lon": 14.342190869819493 }
  },
  {
    "int_id": 4473,
    "ref_id": "204231",
    "name": "DRAGOMELJ",
    "center": 1,
    "location": { "lat": 46.106337777400896, "lon": 14.59423482835964 }
  },
  { "int_id": 4418, "ref_id": "999861", "name": "Debenc", "center": 1 },
  { "int_id": 4215, "ref_id": "528091", "name": "Dečja vas pri Zagradcu", "center": 1 },
  { "int_id": 4131, "ref_id": "508011", "name": "Dob/Šentvidu", "center": 1 },
  { "int_id": 4040, "ref_id": "104231", "name": "Dobrava/Črnučah", "center": 1 },
  {
    "int_id": 3699,
    "ref_id": "605031",
    "name": "Dobravica K",
    "center": 1,
    "location": { "lat": 45.94709656123254, "lon": 14.532233789774452 }
  },
  {
    "int_id": 3864,
    "ref_id": "725011",
    "name": "Dobrova",
    "center": 1,
    "location": { "lat": 46.05446399270917, "lon": 14.417542935753591 }
  },
  {
    "int_id": 4360,
    "ref_id": "725013",
    "name": "Dobrova",
    "center": 1,
    "location": { "lat": 46.0538536967045, "lon": 14.417374946616201 }
  },
  {
    "int_id": 3924,
    "ref_id": "715081",
    "name": "Dobrova Maček",
    "center": 1,
    "location": { "lat": 46.04095698985133, "lon": 14.381391837143875 }
  },
  {
    "int_id": 3926,
    "ref_id": "715091",
    "name": "Dobrova Skodlar",
    "center": 1,
    "location": { "lat": 46.03806528276548, "lon": 14.370557478710735 }
  },
  {
    "int_id": 3920,
    "ref_id": "715061",
    "name": "Dobrova graben",
    "center": 1,
    "location": { "lat": 46.04682367078018, "lon": 14.406303447574786 }
  },
  {
    "int_id": 3922,
    "ref_id": "715071",
    "name": "Dobrova vodomet",
    "center": 1,
    "location": { "lat": 46.042129852265376, "lon": 14.393000593265118 }
  },
  {
    "int_id": 2168,
    "ref_id": "404031",
    "name": "Dobrunje",
    "center": 1,
    "location": { "lat": 46.043283742861924, "lon": 14.579256271957412 }
  },
  {
    "int_id": 4492,
    "ref_id": "404131",
    "name": "Dobrunje-2",
    "center": 1,
    "location": { "lat": 46.03825472846101, "lon": 14.582710377502812 }
  },
  {
    "int_id": 4628,
    "ref_id": "404181",
    "name": "Dobrunjska c.",
    "center": 1,
    "location": { "lat": 46.038640541535656, "lon": 14.578146416728796 }
  },
  {
    "int_id": 3788,
    "ref_id": "825071",
    "name": "Dobruša lipa",
    "center": 1,
    "location": { "lat": 46.18090009894791, "lon": 14.478521083497338 }
  },
  { "int_id": 4010, "ref_id": "756081", "name": "Dol pri Borovnici Majer", "center": 1 },
  { "int_id": 4008, "ref_id": "756091", "name": "Dol pri Borovnici Pivk", "center": 1 },
  {
    "int_id": 2254,
    "ref_id": "703111",
    "name": "Dolgi most",
    "center": 1,
    "location": { "lat": 46.03729415738771, "lon": 14.467289557703694 }
  },
  {
    "int_id": 3378,
    "ref_id": "704051",
    "name": "Dolgi most Rotar",
    "center": 1,
    "location": { "lat": 46.03404906722649, "lon": 14.453858063434865 }
  },
  {
    "int_id": 4483,
    "ref_id": "804401",
    "name": "Dolnice",
    "center": 1,
    "location": { "lat": 46.08203852203172, "lon": 14.450351364514145 }
  },
  {
    "int_id": 4364,
    "ref_id": "803221",
    "name": "Draga",
    "center": 1,
    "location": { "lat": 46.068017409501614, "lon": 14.476555502375351 }
  },
  { "int_id": 3969, "ref_id": "705011", "name": "Dragomer", "center": 1 },
  {
    "int_id": 1947,
    "ref_id": "602021",
    "name": "Drama",
    "center": 1,
    "location": { "lat": 46.0500828476731, "lon": 14.502696469110694 }
  },
  {
    "int_id": 2037,
    "ref_id": "803151",
    "name": "Draveljska gmajna",
    "center": 1,
    "location": { "lat": 46.073829107917064, "lon": 14.461211304250181 }
  },
  {
    "int_id": 1929,
    "ref_id": "803041",
    "name": "Dravlje",
    "center": 1,
    "location": { "lat": 46.083974437675394, "lon": 14.477320018991675 }
  },
  {
    "int_id": 3860,
    "ref_id": "715011",
    "name": "Draževnik",
    "center": 1,
    "location": { "lat": 46.04693155309665, "lon": 14.42724325646384 }
  },
  {
    "int_id": 2307,
    "ref_id": "802051",
    "name": "Drenikova",
    "center": 1,
    "location": { "lat": 46.06707934374081, "lon": 14.49608907789209 }
  },
  { "int_id": 3965, "ref_id": "705051", "name": "Drenov Grič", "center": 1 },
  {
    "int_id": 3606,
    "ref_id": "535041",
    "name": "Drobnič",
    "center": 1,
    "location": { "lat": 45.98102695791534, "lon": 14.685157787887364 }
  },
  {
    "int_id": 3644,
    "ref_id": "804351",
    "name": "Dvor",
    "center": 1,
    "location": { "lat": 46.10562677945738, "lon": 14.442852728357277 }
  },
  {
    "int_id": 3882,
    "ref_id": "725101",
    "name": "Dvor pri Polh.G.",
    "center": 1,
    "location": { "lat": 46.0631819230625, "lon": 14.34555857583309 }
  },
  {
    "int_id": 2341,
    "ref_id": "104061",
    "name": "Elma",
    "center": 1,
    "location": { "lat": 46.098832825987834, "lon": 14.526457532666157 }
  },
  {
    "int_id": 2063,
    "ref_id": "403051",
    "name": "Emona",
    "center": 1,
    "location": { "lat": 46.047781724505484, "lon": 14.54472594352581 }
  },
  {
    "int_id": 3670,
    "ref_id": "745021",
    "name": "Erbežnik",
    "center": 1,
    "location": { "lat": 46.002222346591104, "lon": 14.413467191276787 }
  },
  {
    "int_id": 2299,
    "ref_id": "304051",
    "name": "FUŽINE P+R",
    "center": 1,
    "location": { "lat": 46.05214437158229, "lon": 14.565933894582994 }
  },
  {
    "int_id": 1972,
    "ref_id": "301011",
    "name": "Friškovec",
    "center": 1,
    "location": { "lat": 46.05744319781224, "lon": 14.518329773568011 }
  },
  {
    "int_id": 3809,
    "ref_id": "746041",
    "name": "G. Brezovica",
    "center": 1,
    "location": { "lat": 45.940517710027756, "lon": 14.436875727946854 }
  },
  { "int_id": 4198, "ref_id": "567031", "name": "G.vas/Muljavi K", "center": 1 },
  {
    "int_id": 2296,
    "ref_id": "104221",
    "name": "GAMELJNE",
    "center": 1,
    "location": { "lat": 46.126881819040925, "lon": 14.497334149471904 }
  },
  {
    "int_id": 4437,
    "ref_id": "104361",
    "name": "GD Gameljne",
    "center": 1,
    "location": { "lat": 46.12597739461145, "lon": 14.499893408172841 }
  },
  {
    "int_id": 3559,
    "ref_id": "505143",
    "name": "GROSUPLJE",
    "center": 1,
    "location": { "lat": 45.95578711204889, "lon": 14.653187508886006 }
  },
  {
    "int_id": 3870,
    "ref_id": "725041",
    "name": "Gaberje pri Dob.Brvičar",
    "center": 1,
    "location": { "lat": 46.07273583178539, "lon": 14.400272440339922 }
  },
  {
    "int_id": 3866,
    "ref_id": "725031",
    "name": "Gaberje pri Dobrovi",
    "center": 1,
    "location": { "lat": 46.068129468536384, "lon": 14.408782687240432 }
  },
  { "int_id": 4192, "ref_id": "567061", "name": "Gabrovčec K", "center": 1 },
  { "int_id": 4412, "ref_id": "999831", "name": "Ganter", "center": 1 },
  {
    "int_id": 2329,
    "ref_id": "102031",
    "name": "Gasilska brigada",
    "center": 1,
    "location": { "lat": 46.068518199829164, "lon": 14.516677811809254 }
  },
  {
    "int_id": 1957,
    "ref_id": "603021",
    "name": "Gerbičeva",
    "center": 1,
    "location": { "lat": 46.0408487405219, "lon": 14.489900713009037 }
  },
  {
    "int_id": 2094,
    "ref_id": "703081",
    "name": "Glince",
    "center": 1,
    "location": { "lat": 46.04382496952652, "lon": 14.483834887618324 }
  },
  {
    "int_id": 3827,
    "ref_id": "515021",
    "name": "Glinek/Škofljici",
    "center": 1,
    "location": { "lat": 45.97124850567645, "lon": 14.575327523456524 }
  },
  { "int_id": 4123, "ref_id": "507141", "name": "Glogovica K", "center": 1 },
  {
    "int_id": 2055,
    "ref_id": "402051",
    "name": "Glonarjeva",
    "center": 1,
    "location": { "lat": 46.050310170542375, "lon": 14.526461300357024 }
  },
  {
    "int_id": 3705,
    "ref_id": "605061",
    "name": "Golo",
    "center": 1,
    "location": { "lat": 45.91106074643426, "lon": 14.544728391721181 }
  },
  {
    "int_id": 3715,
    "ref_id": "603151",
    "name": "Goluhova",
    "center": 1,
    "location": { "lat": 46.031434063456565, "lon": 14.517037811164997 }
  },
  {
    "int_id": 4522,
    "ref_id": "815201",
    "name": "Goričane kopališče",
    "center": 1,
    "location": { "lat": 46.14273668039698, "lon": 14.39213769050705 }
  },
  {
    "int_id": 4520,
    "ref_id": "815191",
    "name": "Goričane pod gradom",
    "center": 1,
    "location": { "lat": 46.140150570244536, "lon": 14.399443414071566 }
  },
  {
    "int_id": 4020,
    "ref_id": "756021",
    "name": "Goričica pod Krimom",
    "center": 1,
    "location": { "lat": 45.95372864221038, "lon": 14.384287856362912 }
  },
  {
    "int_id": 2213,
    "ref_id": "103091",
    "name": "Gorjančeva",
    "center": 1,
    "location": { "lat": 46.08507502432342, "lon": 14.507542644203513 }
  },
  {
    "int_id": 2053,
    "ref_id": "402061",
    "name": "Gornje Poljane",
    "center": 1,
    "location": { "lat": 46.048945662045455, "lon": 14.522715763546621 }
  },
  {
    "int_id": 2026,
    "ref_id": "504011",
    "name": "Gornji Rudnik",
    "center": 1,
    "location": { "lat": 46.02811973970789, "lon": 14.535818415942485 }
  },
  {
    "int_id": 2014,
    "ref_id": "602101",
    "name": "Gornji trg",
    "center": 1,
    "location": { "lat": 46.04593359078849, "lon": 14.506111528581163 }
  },
  {
    "int_id": 1942,
    "ref_id": "700011",
    "name": "Gosposvetska",
    "center": 1,
    "location": { "lat": 46.05491764338926, "lon": 14.503700036716628 }
  },
  {
    "int_id": 3659,
    "ref_id": "815101",
    "name": "Gostilna Kovač",
    "center": 1,
    "location": { "lat": 46.12883187865464, "lon": 14.444359153594874 }
  },
  {
    "int_id": 4254,
    "ref_id": "515101",
    "name": "Gradišče 1",
    "center": 1,
    "location": { "lat": 45.92023031919029, "lon": 14.58443492379156 }
  },
  {
    "int_id": 4252,
    "ref_id": "515111",
    "name": "Gradišče 2",
    "center": 1,
    "location": { "lat": 45.91959075541749, "lon": 14.587597027778145 }
  },
  {
    "int_id": 4250,
    "ref_id": "515121",
    "name": "Gradišče 3",
    "center": 1,
    "location": { "lat": 45.91832423044134, "lon": 14.588531250534631 }
  },
  { "int_id": 4217, "ref_id": "528101", "name": "Grintovec/Zagradcu", "center": 1 },
  { "int_id": 4121, "ref_id": "507091", "name": "Griže/Stični", "center": 1 },
  { "int_id": 4139, "ref_id": "508051", "name": "Grm", "center": 1 },
  {
    "int_id": 3558,
    "ref_id": "505141",
    "name": "Grosuplje",
    "center": 1,
    "location": { "lat": 45.95575996956661, "lon": 14.65293165162138 }
  },
  {
    "int_id": 3611,
    "ref_id": "506011",
    "name": "Grosuplje Motel",
    "center": 1,
    "location": { "lat": 45.96660320527646, "lon": 14.659040422790248 }
  },
  {
    "int_id": 3580,
    "ref_id": "556011",
    "name": "Grosuplje SM",
    "center": 1,
    "location": { "lat": 45.95131805681919, "lon": 14.661279174518246 }
  },
  { "int_id": 4000, "ref_id": "707041", "name": "Grčarevec", "center": 1 },
  { "int_id": 4673, "ref_id": "707043", "name": "Grčarevski Vrh", "center": 1 },
  {
    "int_id": 1953,
    "ref_id": "602031",
    "name": "Hajdrihova",
    "center": 1,
    "location": { "lat": 46.04572975657594, "lon": 14.490443094933534 }
  },
  {
    "int_id": 3564,
    "ref_id": "604041",
    "name": "Havptmance",
    "center": 1,
    "location": { "lat": 46.00036999256677, "lon": 14.516695136991835 }
  },
  {
    "int_id": 4725,
    "ref_id": "204311",
    "name": "Hladilniška",
    "center": 1,
    "location": { "lat": 46.06233329025621, "lon": 14.604204969018456 }
  },
  {
    "int_id": 3936,
    "ref_id": "716011",
    "name": "Horjul",
    "center": 1,
    "location": { "lat": 46.022595750306614, "lon": 14.297377837979404 }
  },
  {
    "int_id": 3876,
    "ref_id": "725071",
    "name": "Hrastenice",
    "center": 1,
    "location": { "lat": 46.07315455643299, "lon": 14.376931150791247 }
  },
  {
    "int_id": 2151,
    "ref_id": "204061",
    "name": "Hrastje",
    "center": 1,
    "location": { "lat": 46.07506946389391, "lon": 14.563945565347717 }
  },
  {
    "int_id": 3707,
    "ref_id": "605071",
    "name": "Hrastje pri Golem",
    "center": 1,
    "location": { "lat": 45.904200086279424, "lon": 14.546938061450328 }
  },
  {
    "int_id": 3776,
    "ref_id": "816011",
    "name": "Hraše center",
    "center": 1,
    "location": { "lat": 46.1742175797749, "lon": 14.447368080854627 }
  },
  {
    "int_id": 3842,
    "ref_id": "816021",
    "name": "Hraše vzhod",
    "center": 1,
    "location": { "lat": 46.175747387560776, "lon": 14.454164389565316 }
  },
  {
    "int_id": 3774,
    "ref_id": "815131",
    "name": "Hraše zahod",
    "center": 1,
    "location": { "lat": 46.17011453189316, "lon": 14.440472085416657 }
  },
  {
    "int_id": 3872,
    "ref_id": "725051",
    "name": "Hruševo",
    "center": 1,
    "location": { "lat": 46.07469668028962, "lon": 14.392765822974576 }
  },
  {
    "int_id": 3365,
    "ref_id": "404111",
    "name": "Hruševska",
    "center": 1,
    "location": { "lat": 46.038913899400484, "lon": 14.569793152474626 }
  },
  {
    "int_id": 2164,
    "ref_id": "404011",
    "name": "Hrušica",
    "center": 1,
    "location": { "lat": 46.04553228046341, "lon": 14.559438471761965 }
  },
  { "int_id": 4714, "ref_id": "707033", "name": "Hrušica/Kalcah", "center": 1 },
  {
    "int_id": 2049,
    "ref_id": "402011",
    "name": "Hrvatski trg",
    "center": 1,
    "location": { "lat": 46.0525106087113, "lon": 14.516739637014302 }
  },
  {
    "int_id": 4462,
    "ref_id": "703211",
    "name": "I. Kobilca",
    "center": 1,
    "location": { "lat": 46.04167621962514, "lon": 14.463585404332981 }
  },
  {
    "int_id": 4367,
    "ref_id": "103231",
    "name": "I.C. Šiška",
    "center": 1,
    "location": { "lat": 46.079330760068785, "lon": 14.498068651830687 }
  },
  {
    "int_id": 1900,
    "ref_id": "804161",
    "name": "IMP",
    "center": 1,
    "location": { "lat": 46.088726871251666, "lon": 14.477594395447536 }
  },
  {
    "int_id": 3569,
    "ref_id": "625021",
    "name": "Ig",
    "center": 1,
    "location": { "lat": 45.95980279238771, "lon": 14.517443894227647 }
  },
  {
    "int_id": 2109,
    "ref_id": "605011",
    "name": "Ig AP",
    "center": 1,
    "location": { "lat": 45.958925177707336, "lon": 14.527937383373095 }
  },
  {
    "int_id": 3566,
    "ref_id": "605081",
    "name": "Ig Petrol",
    "center": 1,
    "location": { "lat": 45.964015757801796, "lon": 14.529787917953177 }
  },
  {
    "int_id": 3697,
    "ref_id": "605021",
    "name": "Ig mizarstvo",
    "center": 1,
    "location": { "lat": 45.955784588500286, "lon": 14.531991525940631 }
  },
  {
    "int_id": 2047,
    "ref_id": "501011",
    "name": "Ilirska",
    "center": 1,
    "location": { "lat": 46.05306784513838, "lon": 14.513475315543792 }
  },
  {
    "int_id": 2318,
    "ref_id": "603101",
    "name": "Ilovica",
    "center": 1,
    "location": { "lat": 46.027366427933735, "lon": 14.511652100004893 }
  },
  { "int_id": 4111, "ref_id": "507031", "name": "Ivančna Gorica", "center": 1 },
  { "int_id": 4113, "ref_id": "507071", "name": "Ivančna Gorica ŠC", "center": 1 },
  { "int_id": 4688, "ref_id": "507073", "name": "Ivančna Gorica ŠC", "center": 1 },
  {
    "int_id": 3694,
    "ref_id": "626011",
    "name": "IŠKA VAS obrač.",
    "center": 1,
    "location": { "lat": 45.936996645930634, "lon": 14.514594152202672 }
  },
  {
    "int_id": 3675,
    "ref_id": "615011",
    "name": "Iška Loka",
    "center": 1,
    "location": { "lat": 45.97109913641348, "lon": 14.515067472979194 }
  },
  {
    "int_id": 3693,
    "ref_id": "625051",
    "name": "Iška vas",
    "center": 1,
    "location": { "lat": 45.940600636292565, "lon": 14.511466300186834 }
  },
  {
    "int_id": 3783,
    "ref_id": "625061",
    "name": "Iška vas šola",
    "center": 1,
    "location": { "lat": 45.94446742889388, "lon": 14.509506069445331 }
  },
  {
    "int_id": 2322,
    "ref_id": "604011",
    "name": "Iški most",
    "center": 1,
    "location": { "lat": 46.02003042672346, "lon": 14.510523974833653 }
  },
  {
    "int_id": 3801,
    "ref_id": "604061",
    "name": "Ižica",
    "center": 1,
    "location": { "lat": 46.004809104022826, "lon": 14.515294326502548 }
  },
  {
    "int_id": 3415,
    "ref_id": "745061",
    "name": "JEZERO",
    "center": 1,
    "location": { "lat": 45.97078640652445, "lon": 14.434657563357797 }
  },
  {
    "int_id": 1908,
    "ref_id": "104033",
    "name": "JEŽICA",
    "center": 1,
    "location": { "lat": 46.09736390019645, "lon": 14.516814470037632 }
  },
  {
    "int_id": 4430,
    "ref_id": "104321",
    "name": "JEŽICA P+R",
    "center": 1,
    "location": { "lat": 46.098403218015164, "lon": 14.514674766627513 }
  },
  {
    "int_id": 1955,
    "ref_id": "603011",
    "name": "Jadranska",
    "center": 1,
    "location": { "lat": 46.04363042189287, "lon": 14.488500386381054 }
  },
  {
    "int_id": 2190,
    "ref_id": "703031",
    "name": "Jamnikarjeva",
    "center": 1,
    "location": { "lat": 46.04490485293723, "lon": 14.475130840575943 }
  },
  {
    "int_id": 2057,
    "ref_id": "403011",
    "name": "Jana Husa",
    "center": 1,
    "location": { "lat": 46.05324824541096, "lon": 14.532798109626064 }
  },
  {
    "int_id": 3668,
    "ref_id": "744021",
    "name": "Japelj",
    "center": 1,
    "location": { "lat": 46.011753109110856, "lon": 14.413021279881251 }
  },
  {
    "int_id": 2001,
    "ref_id": "203091",
    "name": "Jarše",
    "center": 1,
    "location": { "lat": 46.068452528836595, "lon": 14.536677333336565 }
  },
  {
    "int_id": 3454,
    "ref_id": "405011",
    "name": "Javor",
    "center": 1,
    "location": { "lat": 46.04022666441805, "lon": 14.64009171196109 }
  },
  {
    "int_id": 2519,
    "ref_id": "425011",
    "name": "Javor-2",
    "center": 1,
    "location": { "lat": 46.01253960699885, "lon": 14.65285540834531 }
  },
  {
    "int_id": 3029,
    "ref_id": "104181",
    "name": "Ježa",
    "center": 1,
    "location": { "lat": 46.10057334547567, "lon": 14.553386927052292 }
  },
  {
    "int_id": 3472,
    "ref_id": "104031",
    "name": "Ježica",
    "center": 1,
    "location": { "lat": 46.09746205855028, "lon": 14.516924312531678 }
  },
  {
    "int_id": 4464,
    "ref_id": "703201",
    "name": "Ježkova",
    "center": 1,
    "location": { "lat": 46.04532474920376, "lon": 14.462154671690204 }
  },
  {
    "int_id": 3324,
    "ref_id": "504041",
    "name": "Jurčkova",
    "center": 1,
    "location": { "lat": 46.02657008750812, "lon": 14.527613992466762 }
  },
  {
    "int_id": 2235,
    "ref_id": "803181",
    "name": "KAMNA GORICA",
    "center": 1,
    "location": { "lat": 46.07946542076504, "lon": 14.465103182507095 }
  },
  {
    "int_id": 4346,
    "ref_id": "300015",
    "name": "KOLODVOR",
    "center": 1,
    "location": { "lat": 46.05781320609446, "lon": 14.508050238162832 }
  },
  {
    "int_id": 2172,
    "ref_id": "404051",
    "name": "KPL",
    "center": 1,
    "location": { "lat": 46.04150348595024, "lon": 14.592123235388275 }
  },
  {
    "int_id": 3663,
    "ref_id": "815031",
    "name": "KS. Pirniče",
    "center": 1,
    "location": { "lat": 46.137513781899244, "lon": 14.433351572736045 }
  },
  {
    "int_id": 3655,
    "ref_id": "815111",
    "name": "Kajakaška",
    "center": 1,
    "location": { "lat": 46.117813431868626, "lon": 14.456523518763712 }
  },
  { "int_id": 4223, "ref_id": "528131", "name": "Kal/Ambrusu", "center": 1 },
  { "int_id": 4221, "ref_id": "528121", "name": "Kal/Ambrusu K", "center": 1 },
  { "int_id": 3999, "ref_id": "707031", "name": "Kalce/Logatcu", "center": 1 },
  {
    "int_id": 2219,
    "ref_id": "104021",
    "name": "Kališnikov trg",
    "center": 1,
    "location": { "lat": 46.09374878451939, "lon": 14.51056917062846 }
  },
  { "int_id": 4225, "ref_id": "528141", "name": "Kamni Vrh", "center": 1 },
  {
    "int_id": 3817,
    "ref_id": "745091",
    "name": "Kamnik pod Krimom",
    "center": 1,
    "location": { "lat": 45.95607165270733, "lon": 14.408345242231707 }
  },
  {
    "int_id": 3819,
    "ref_id": "745081",
    "name": "Kamnik pod Krimom K.",
    "center": 1,
    "location": { "lat": 45.96608330022334, "lon": 14.403135250398648 }
  },
  {
    "int_id": 4485,
    "ref_id": "804391",
    "name": "Kamnogoriška",
    "center": 1,
    "location": { "lat": 46.08353951610142, "lon": 14.455594785148042 }
  },
  {
    "int_id": 2327,
    "ref_id": "102091",
    "name": "Kardeljeva ploščad",
    "center": 1,
    "location": { "lat": 46.07190663814382, "lon": 14.519046257945956 }
  },
  {
    "int_id": 1996,
    "ref_id": "203051",
    "name": "Kavčičeva",
    "center": 1,
    "location": { "lat": 46.06406129296648, "lon": 14.535943512487439 }
  },
  {
    "int_id": 4708,
    "ref_id": "304161",
    "name": "Kašeljska",
    "center": 1,
    "location": { "lat": 46.05464901459777, "lon": 14.592844680191698 }
  },
  {
    "int_id": 1936,
    "ref_id": "802021",
    "name": "Kino Šiška",
    "center": 1,
    "location": { "lat": 46.06968394599434, "lon": 14.48944557098427 }
  },
  {
    "int_id": 1985,
    "ref_id": "402031",
    "name": "Klinični center",
    "center": 1,
    "location": { "lat": 46.052444485079114, "lon": 14.520580345277883 }
  },
  {
    "int_id": 2043,
    "ref_id": "803081",
    "name": "Kneza Koclja",
    "center": 1,
    "location": { "lat": 46.07126489429215, "lon": 14.480673370385368 }
  },
  {
    "int_id": 2107,
    "ref_id": "403021",
    "name": "Kodeljevo",
    "center": 1,
    "location": { "lat": 46.0521574338475, "lon": 14.539097375426817 }
  },
  {
    "int_id": 2059,
    "ref_id": "403023",
    "name": "Kodeljevo",
    "center": 1,
    "location": { "lat": 46.05157768146053, "lon": 14.539444384308783 }
  },
  {
    "int_id": 2003,
    "ref_id": "203101",
    "name": "Kodrova",
    "center": 1,
    "location": { "lat": 46.06919545676392, "lon": 14.539731745422914 }
  },
  {
    "int_id": 1974,
    "ref_id": "300011",
    "name": "Kolodvor",
    "center": 1,
    "location": { "lat": 46.0576698635114, "lon": 14.509330225066428 }
  },
  {
    "int_id": 2069,
    "ref_id": "104101",
    "name": "Kolodvor Črnuče",
    "center": 1,
    "location": { "lat": 46.10153981863801, "lon": 14.526104442676834 }
  },
  {
    "int_id": 3858,
    "ref_id": "715021",
    "name": "Komanija",
    "center": 1,
    "location": { "lat": 46.04396349585409, "lon": 14.428771731038028 }
  },
  { "int_id": 4062, "ref_id": "106011", "name": "Komenda vas", "center": 1 },
  { "int_id": 4377, "ref_id": "999201", "name": "Komenda Š", "center": 1 },
  {
    "int_id": 1930,
    "ref_id": "803031",
    "name": "Kompas",
    "center": 1,
    "location": { "lat": 46.07995509978605, "lon": 14.480142912210926 }
  },
  {
    "int_id": 1961,
    "ref_id": "603041",
    "name": "Koprska",
    "center": 1,
    "location": { "lat": 46.03537885123733, "lon": 14.484414220990427 }
  },
  {
    "int_id": 3760,
    "ref_id": "826111",
    "name": "Koseze",
    "center": 1,
    "location": { "lat": 46.16981100445177, "lon": 14.527801841622585 }
  },
  {
    "int_id": 2039,
    "ref_id": "803141",
    "name": "Koseze",
    "center": 1,
    "location": { "lat": 46.07217140395454, "lon": 14.467313869081721 }
  },
  {
    "int_id": 3762,
    "ref_id": "826121",
    "name": "Koseze Stare",
    "center": 1,
    "location": { "lat": 46.16830144638482, "lon": 14.538609412066984 }
  },
  {
    "int_id": 1898,
    "ref_id": "804081",
    "name": "Kosmačeva",
    "center": 1,
    "location": { "lat": 46.10073309770698, "lon": 14.460527586824302 }
  },
  {
    "int_id": 3781,
    "ref_id": "625041",
    "name": "Kot",
    "center": 1,
    "location": { "lat": 45.951692109138044, "lon": 14.512137156472358 }
  },
  {
    "int_id": 3642,
    "ref_id": "803211",
    "name": "Kovinarska",
    "center": 1,
    "location": { "lat": 46.08041884116378, "lon": 14.49139926337164 }
  },
  {
    "int_id": 3417,
    "ref_id": "704101",
    "name": "Kozarje",
    "center": 1,
    "location": { "lat": 46.031464773911836, "lon": 14.445808655768296 }
  },
  {
    "int_id": 3951,
    "ref_id": "714011",
    "name": "Kozarje GD",
    "center": 1,
    "location": { "lat": 46.03706029409044, "lon": 14.44277342439796 }
  },
  {
    "int_id": 3953,
    "ref_id": "714021",
    "name": "Kozarje gmajna",
    "center": 1,
    "location": { "lat": 46.045056139068734, "lon": 14.442867658968034 }
  },
  {
    "int_id": 3616,
    "ref_id": "535061",
    "name": "Kožljevec",
    "center": 1,
    "location": { "lat": 45.993053135442274, "lon": 14.709815848125634 }
  },
  {
    "int_id": 3639,
    "ref_id": "203211",
    "name": "Kranjčeva",
    "center": 1,
    "location": { "lat": 46.06923331892398, "lon": 14.525873626217601 }
  },
  {
    "int_id": 1959,
    "ref_id": "603031",
    "name": "Krimska",
    "center": 1,
    "location": { "lat": 46.036620342436805, "lon": 14.489406792660178 }
  },
  {
    "int_id": 4487,
    "ref_id": "804411",
    "name": "Krivec",
    "center": 1,
    "location": { "lat": 46.07849515515043, "lon": 14.455380824881614 }
  },
  {
    "int_id": 2012,
    "ref_id": "602061",
    "name": "Križanke",
    "center": 1,
    "location": { "lat": 46.046218328064526, "lon": 14.501873893687451 }
  },
  {
    "int_id": 3456,
    "ref_id": "404083",
    "name": "Križišče Sostro",
    "center": 1,
    "location": { "lat": 46.03755863712547, "lon": 14.608434281440536 }
  },
  {
    "int_id": 2100,
    "ref_id": "404081",
    "name": "Križišče Sostro",
    "center": 1,
    "location": { "lat": 46.03737301692156, "lon": 14.60823040964175 }
  },
  {
    "int_id": 3709,
    "ref_id": "606011",
    "name": "Kurešček K",
    "center": 1,
    "location": { "lat": 45.88989279163705, "lon": 14.552129947082035 }
  },
  {
    "int_id": 3917,
    "ref_id": "727011",
    "name": "Kurja vas/Šentjoštu",
    "center": 1,
    "location": { "lat": 46.03864580326723, "lon": 14.221893889186564 }
  },
  { "int_id": 4219, "ref_id": "528111", "name": "Kužljevec K", "center": 1 },
  {
    "int_id": 1890,
    "ref_id": "204051",
    "name": "LETALIŠKA",
    "center": 1,
    "location": { "lat": 46.06226849686343, "lon": 14.570672738668053 }
  },
  {
    "int_id": 3640,
    "ref_id": "103201",
    "name": "LITOSTROJ",
    "center": 1,
    "location": { "lat": 46.08249474674623, "lon": 14.49714505590142 }
  },
  {
    "int_id": 4366,
    "ref_id": "803053",
    "name": "LITOSTROJSKA",
    "center": 1,
    "location": { "lat": 46.077423548251645, "lon": 14.488552721904906 }
  },
  {
    "int_id": 2320,
    "ref_id": "603111",
    "name": "Lahova pot",
    "center": 1,
    "location": { "lat": 46.024435725852285, "lon": 14.511204995960094 }
  },
  { "int_id": 4066, "ref_id": "106031", "name": "Lahovče", "center": 1 },
  {
    "int_id": 3418,
    "ref_id": "406071",
    "name": "Lanišče",
    "center": 1,
    "location": { "lat": 46.04530107043014, "lon": 14.709560000623094 }
  },
  {
    "int_id": 3506,
    "ref_id": "504091",
    "name": "Lavrica",
    "center": 1,
    "location": { "lat": 45.99714959442692, "lon": 14.557910934882434 }
  },
  {
    "int_id": 3503,
    "ref_id": "504081",
    "name": "Lavrica pri Malči",
    "center": 1,
    "location": { "lat": 46.00032545576539, "lon": 14.55524187329456 }
  },
  {
    "int_id": 4724,
    "ref_id": "204301",
    "name": "Ledena dvorana Zalog",
    "center": 1,
    "location": { "lat": 46.062368232532044, "lon": 14.606977214077125 }
  },
  {
    "int_id": 1882,
    "ref_id": "204011",
    "name": "Leskoškova",
    "center": 1,
    "location": { "lat": 46.06207769478295, "lon": 14.556743125879164 }
  },
  { "int_id": 3966, "ref_id": "705041", "name": "Lesno Brdo", "center": 1 },
  { "int_id": 4071, "ref_id": "107011", "name": "Letališče Brnik", "center": 1 },
  { "int_id": 4098, "ref_id": "776041", "name": "Ligojna K", "center": 1 },
  {
    "int_id": 4375,
    "ref_id": "103203",
    "name": "Litostroj",
    "center": 1,
    "location": { "lat": 46.08239101658008, "lon": 14.496430536243848 }
  },
  {
    "int_id": 1906,
    "ref_id": "803051",
    "name": "Litostrojska",
    "center": 1,
    "location": { "lat": 46.076823346479145, "lon": 14.488600792601739 }
  },
  {
    "int_id": 2316,
    "ref_id": "603091",
    "name": "Livada",
    "center": 1,
    "location": { "lat": 46.03421661391044, "lon": 14.511098679280039 }
  },
  {
    "int_id": 3938,
    "ref_id": "716021",
    "name": "Ljubgojna",
    "center": 1,
    "location": { "lat": 46.0209745906236, "lon": 14.287365189664024 }
  },
  {
    "int_id": 3718,
    "ref_id": "300013",
    "name": "Ljubljana AP",
    "center": 1,
    "location": { "lat": 46.05790801247384, "lon": 14.509341988795772 }
  },
  {
    "int_id": 1904,
    "ref_id": "803061",
    "name": "Ljubljanske brigade",
    "center": 1,
    "location": { "lat": 46.079901369373495, "lon": 14.486771144066314 }
  },
  {
    "int_id": 4684,
    "ref_id": "603251",
    "name": "Log",
    "center": 1,
    "location": { "lat": 46.02723678381843, "lon": 14.46590956256481 }
  },
  { "int_id": 4607, "ref_id": "705023", "name": "Log - Dragomer OŠ", "center": 1 },
  { "int_id": 3968, "ref_id": "705021", "name": "Log pri Brez.Mole", "center": 1 },
  { "int_id": 3967, "ref_id": "705031", "name": "Log pri Brez.vas", "center": 1 },
  {
    "int_id": 3878,
    "ref_id": "725081",
    "name": "Log pri Polh.G.",
    "center": 1,
    "location": { "lat": 46.0730757610957, "lon": 14.362195483680614 }
  },
  { "int_id": 3997, "ref_id": "707021", "name": "Logatec", "center": 1 },
  { "int_id": 3993, "ref_id": "706041", "name": "Logatec Krpan", "center": 1 },
  { "int_id": 4050, "ref_id": "105041", "name": "Loka pri Mengšu", "center": 1 },
  { "int_id": 3970, "ref_id": "704091", "name": "Lukovica pri Brezovici", "center": 1 },
  {
    "int_id": 3313,
    "ref_id": "501031",
    "name": "Lutkovno gl.",
    "center": 1,
    "location": { "lat": 46.05049569097206, "lon": 14.510634885980535 }
  },
  {
    "int_id": 3632,
    "ref_id": "546081",
    "name": "M. Lipljene",
    "center": 1,
    "location": { "lat": 45.888581530916966, "lon": 14.63010842109586 }
  },
  {
    "int_id": 3602,
    "ref_id": "535021",
    "name": "M. St. vas",
    "center": 1,
    "location": { "lat": 45.97449349389102, "lon": 14.672906307534726 }
  },
  {
    "int_id": 3626,
    "ref_id": "546051",
    "name": "M. vas pri Grosupljem",
    "center": 1,
    "location": { "lat": 45.93320836788233, "lon": 14.62484226087944 }
  },
  { "int_id": 4108, "ref_id": "507021", "name": "M.Hudo", "center": 1 },
  {
    "int_id": 4174,
    "ref_id": "526061",
    "name": "M.Ilova GORA",
    "center": 1,
    "location": { "lat": 45.881191846790784, "lon": 14.710882708510576 }
  },
  {
    "int_id": 4164,
    "ref_id": "526011",
    "name": "M.Mlačevo",
    "center": 1,
    "location": { "lat": 45.93568391176534, "lon": 14.673537103130453 }
  },
  {
    "int_id": 4170,
    "ref_id": "526041",
    "name": "M.Račna",
    "center": 1,
    "location": { "lat": 45.8987484684629, "lon": 14.69135454258082 }
  },
  {
    "int_id": 2679,
    "ref_id": "415061",
    "name": "MALI LIPOGLAV",
    "center": 1,
    "location": { "lat": 45.992230350765084, "lon": 14.647919104662247 }
  },
  {
    "int_id": 3838,
    "ref_id": "805023",
    "name": "MEDVODE",
    "center": 1,
    "location": { "lat": 46.14110692030292, "lon": 14.410963584713002 }
  },
  {
    "int_id": 2286,
    "ref_id": "805041",
    "name": "MEDVODE nas.",
    "center": 1,
    "location": { "lat": 46.14249747158114, "lon": 14.406910050799764 }
  },
  {
    "int_id": 3103,
    "ref_id": "604031",
    "name": "MESTNI LOG",
    "center": 1,
    "location": { "lat": 46.03017047784683, "lon": 14.472772958196813 }
  },
  {
    "int_id": 3539,
    "ref_id": "505041",
    "name": "Mali vrh",
    "center": 1,
    "location": { "lat": 45.98156010320962, "lon": 14.599918003847128 }
  },
  { "int_id": 4210, "ref_id": "528041", "name": "Marinča vas", "center": 1 },
  {
    "int_id": 3521,
    "ref_id": "103161",
    "name": "Maroltova",
    "center": 1,
    "location": { "lat": 46.07986874985113, "lon": 14.519686947205495 }
  },
  {
    "int_id": 1892,
    "ref_id": "804131",
    "name": "Martinova",
    "center": 1,
    "location": { "lat": 46.113479467795734, "lon": 14.464355355670031 }
  },
  {
    "int_id": 3679,
    "ref_id": "615031",
    "name": "Matena",
    "center": 1,
    "location": { "lat": 45.971675695072435, "lon": 14.497469185184466 }
  },
  {
    "int_id": 3955,
    "ref_id": "736011",
    "name": "Mačkov graben",
    "center": 1,
    "location": { "lat": 46.074278559252015, "lon": 14.311530551712051 }
  },
  {
    "int_id": 2280,
    "ref_id": "804071",
    "name": "Medno",
    "center": 1,
    "location": { "lat": 46.12417129382569, "lon": 14.43715388100948 }
  },
  {
    "int_id": 2283,
    "ref_id": "805021",
    "name": "Medvode",
    "center": 1,
    "location": { "lat": 46.14120686093136, "lon": 14.410740407489289 }
  },
  {
    "int_id": 2281,
    "ref_id": "805011",
    "name": "Medvoška a.p.",
    "center": 1,
    "location": { "lat": 46.13829362123937, "lon": 14.413441343823656 }
  },
  { "int_id": 4054, "ref_id": "105061", "name": "Mengeš Lovec", "center": 1 },
  { "int_id": 4056, "ref_id": "105071", "name": "Mengeš Pavovec", "center": 1 },
  { "int_id": 4052, "ref_id": "105051", "name": "Mengeš Petrol", "center": 1 },
  {
    "int_id": 2083,
    "ref_id": "102081",
    "name": "Mercator",
    "center": 1,
    "location": { "lat": 46.07418727531824, "lon": 14.511198804459688 }
  },
  {
    "int_id": 3323,
    "ref_id": "503051",
    "name": "Mihov štradon",
    "center": 1,
    "location": { "lat": 46.02959416231411, "lon": 14.521093537811979 }
  },
  {
    "int_id": 2103,
    "ref_id": "602071",
    "name": "Mirje",
    "center": 1,
    "location": { "lat": 46.04459048966803, "lon": 14.500664433282438 }
  },
  {
    "int_id": 4676,
    "ref_id": "603201",
    "name": "Mokrška",
    "center": 1,
    "location": { "lat": 46.0299700288598, "lon": 14.492132572785604 }
  },
  { "int_id": 4060, "ref_id": "105091", "name": "Moste Petrol", "center": 1 },
  {
    "int_id": 3672,
    "ref_id": "745031",
    "name": "Mostiček",
    "center": 1,
    "location": { "lat": 45.99723357429212, "lon": 14.40789047282145 }
  },
  {
    "int_id": 2303,
    "ref_id": "102061",
    "name": "Mostovna",
    "center": 1,
    "location": { "lat": 46.07363417344504, "lon": 14.499288549830466 }
  },
  { "int_id": 4202, "ref_id": "567011", "name": "Mrzlo polje", "center": 1 },
  { "int_id": 4196, "ref_id": "567041", "name": "Muljava", "center": 1 },
  {
    "int_id": 1915,
    "ref_id": "603061",
    "name": "Murgle",
    "center": 1,
    "location": { "lat": 46.0385515248606, "lon": 14.499911496272992 }
  },
  {
    "int_id": 2033,
    "ref_id": "804211",
    "name": "Murkova",
    "center": 1,
    "location": { "lat": 46.07363628682798, "lon": 14.450065316441446 }
  },
  {
    "int_id": 2324,
    "ref_id": "103081",
    "name": "N. STOŽICE P+R",
    "center": 1,
    "location": { "lat": 46.08193363091365, "lon": 14.51974532615936 }
  },
  {
    "int_id": 3826,
    "ref_id": "745043",
    "name": "NOT. GORICE",
    "center": 1,
    "location": { "lat": 45.98786538580495, "lon": 14.40157595816796 }
  },
  {
    "int_id": 2008,
    "ref_id": "203171",
    "name": "NOVE JARŠE",
    "center": 1,
    "location": { "lat": 46.06940806391334, "lon": 14.550588656866111 }
  },
  {
    "int_id": 3328,
    "ref_id": "504061",
    "name": "NS RUDNIK",
    "center": 1,
    "location": { "lat": 46.01836318796394, "lon": 14.535319069751903 }
  },
  {
    "int_id": 3327,
    "ref_id": "504051",
    "name": "NS Rudnik",
    "center": 1,
    "location": { "lat": 46.020266570654265, "lon": 14.5350922397477 }
  },
  {
    "int_id": 3677,
    "ref_id": "615021",
    "name": "Na Gmajni",
    "center": 1,
    "location": { "lat": 45.97362668767148, "lon": 14.507647341314508 }
  },
  {
    "int_id": 3377,
    "ref_id": "704061",
    "name": "Na Gmajnici",
    "center": 1,
    "location": { "lat": 46.029208972325385, "lon": 14.439055508891 }
  },
  { "int_id": 4426, "ref_id": "999901", "name": "Na Pili", "center": 1 },
  {
    "int_id": 1872,
    "ref_id": "802031",
    "name": "Na jami",
    "center": 1,
    "location": { "lat": 46.06662781223246, "lon": 14.49001805136508 }
  },
  {
    "int_id": 1896,
    "ref_id": "804091",
    "name": "Na klancu",
    "center": 1,
    "location": { "lat": 46.10428203590123, "lon": 14.462767943249055 }
  },
  {
    "int_id": 4235,
    "ref_id": "203231",
    "name": "Na Žalah",
    "center": 1,
    "location": { "lat": 46.07209757484958, "lon": 14.52971099250789 }
  },
  {
    "int_id": 3031,
    "ref_id": "204131",
    "name": "Nadgorica",
    "center": 1,
    "location": { "lat": 46.09728744975374, "lon": 14.558264657656112 }
  },
  { "int_id": 4064, "ref_id": "106021", "name": "Nasovče", "center": 1 },
  { "int_id": 4588, "ref_id": "745041", "name": "Notranje Gorice", "center": 1 },
  { "int_id": 4410, "ref_id": "999821", "name": "Nova vas/Žireh", "center": 1 },
  {
    "int_id": 3807,
    "ref_id": "746051",
    "name": "Novaki",
    "center": 1,
    "location": { "lat": 45.90642514399163, "lon": 14.431233091331023 }
  },
  {
    "int_id": 3471,
    "ref_id": "203161",
    "name": "Nove Jarše",
    "center": 1,
    "location": { "lat": 46.07042600657138, "lon": 14.54897772853889 }
  },
  {
    "int_id": 2309,
    "ref_id": "203071",
    "name": "Nove Žale",
    "center": 1,
    "location": { "lat": 46.07461721703654, "lon": 14.531788306989379 }
  },
  {
    "int_id": 2126,
    "ref_id": "204101",
    "name": "Novo Polje",
    "center": 1,
    "location": { "lat": 46.063277097431296, "lon": 14.583195651594794 }
  },
  {
    "int_id": 2284,
    "ref_id": "805031",
    "name": "Novo naselje",
    "center": 1,
    "location": { "lat": 46.14188546534472, "lon": 14.408982284534956 }
  },
  { "int_id": 4416, "ref_id": "999851", "name": "Noč", "center": 1 },
  {
    "int_id": 1893,
    "ref_id": "804111",
    "name": "Ob daljnovodu",
    "center": 1,
    "location": { "lat": 46.11312537563648, "lon": 14.46163845070631 }
  },
  {
    "int_id": 2337,
    "ref_id": "104081",
    "name": "Obrtna cona",
    "center": 1,
    "location": { "lat": 46.09780549544298, "lon": 14.542176339610624 }
  },
  {
    "int_id": 2035,
    "ref_id": "804201",
    "name": "Omersova",
    "center": 1,
    "location": { "lat": 46.07414423803043, "lon": 14.453920929851009 }
  },
  {
    "int_id": 4457,
    "ref_id": "603171",
    "name": "Opekarska",
    "center": 1,
    "location": { "lat": 46.03739674728024, "lon": 14.503593491341524 }
  },
  { "int_id": 4424, "ref_id": "999891", "name": "Orel/Žireh", "center": 1 },
  {
    "int_id": 2133,
    "ref_id": "304021",
    "name": "Osenjakova",
    "center": 1,
    "location": { "lat": 46.056156850919145, "lon": 14.560675243179906 }
  },
  {
    "int_id": 3646,
    "ref_id": "804341",
    "name": "Oval",
    "center": 1,
    "location": { "lat": 46.10416116893779, "lon": 14.44968488948994 }
  },
  {
    "int_id": 3800,
    "ref_id": "745101",
    "name": "OŠ Jezero",
    "center": 1,
    "location": { "lat": 45.97174290011312, "lon": 14.429099322429623 }
  },
  {
    "int_id": 2262,
    "ref_id": "104151",
    "name": "OŠ Maksa Pečarja",
    "center": 1,
    "location": { "lat": 46.10549228758094, "lon": 14.534530230575728 }
  },
  {
    "int_id": 3466,
    "ref_id": "404161",
    "name": "OŠ Sostro",
    "center": 1,
    "location": { "lat": 46.03524699986579, "lon": 14.599212586679117 }
  },
  {
    "int_id": 4721,
    "ref_id": "204261",
    "name": "PODGRAD",
    "center": 1,
    "location": { "lat": 46.06791103625215, "lon": 14.638026883539206 }
  },
  {
    "int_id": 2031,
    "ref_id": "804221",
    "name": "PODUTIK",
    "center": 1,
    "location": { "lat": 46.07461599836672, "lon": 14.443880102195605 }
  },
  {
    "int_id": 3888,
    "ref_id": "726011",
    "name": "POLHOV GRADEC",
    "center": 1,
    "location": { "lat": 46.0653919010501, "lon": 14.315805736167762 }
  },
  {
    "int_id": 3612,
    "ref_id": "535091",
    "name": "POLICA/VIŠ. G.",
    "center": 1,
    "location": { "lat": 45.98104988310665, "lon": 14.704164462824657 }
  },
  {
    "int_id": 1859,
    "ref_id": "804181",
    "name": "PRŽAN",
    "center": 1,
    "location": { "lat": 46.08835152519974, "lon": 14.458834606333243 }
  },
  { "int_id": 4018, "ref_id": "756031", "name": "Pako", "center": 1 },
  {
    "int_id": 2725,
    "ref_id": "415051",
    "name": "Pance",
    "center": 1,
    "location": { "lat": 45.988575981269285, "lon": 14.664042445293035 }
  },
  {
    "int_id": 2201,
    "ref_id": "101021",
    "name": "Parmova",
    "center": 1,
    "location": { "lat": 46.06375139782866, "lon": 14.507448502357017 }
  },
  {
    "int_id": 3624,
    "ref_id": "546041",
    "name": "Pece K",
    "center": 1,
    "location": { "lat": 45.93608029474557, "lon": 14.627914662133152 }
  },
  {
    "int_id": 3599,
    "ref_id": "535011",
    "name": "Perovo",
    "center": 1,
    "location": { "lat": 45.97086271547049, "lon": 14.662784227322243 }
  },
  {
    "int_id": 2024,
    "ref_id": "503041",
    "name": "Peruzzijeva",
    "center": 1,
    "location": { "lat": 46.02994097898759, "lon": 14.532594533574196 }
  },
  {
    "int_id": 3957,
    "ref_id": "736021",
    "name": "Petačev graben",
    "center": 1,
    "location": { "lat": 46.07982658270015, "lon": 14.300049236054255 }
  },
  {
    "int_id": 2139,
    "ref_id": "304111",
    "name": "Petrol",
    "center": 1,
    "location": { "lat": 46.05683627238089, "lon": 14.601469659362227 }
  },
  {
    "int_id": 3608,
    "ref_id": "535081",
    "name": "Peč pri Polici",
    "center": 1,
    "location": { "lat": 45.97803931177854, "lon": 14.698614686530656 }
  },
  {
    "int_id": 3829,
    "ref_id": "515031",
    "name": "Pijava Gorica",
    "center": 1,
    "location": { "lat": 45.95217793182127, "lon": 14.572685802853446 }
  },
  { "int_id": 4031, "ref_id": "765021", "name": "Plešivica/Logu grad", "center": 1 },
  { "int_id": 4029, "ref_id": "765011", "name": "Plešivica/Logu spomenik", "center": 1 },
  {
    "int_id": 1862,
    "ref_id": "803121",
    "name": "Plešičeva",
    "center": 1,
    "location": { "lat": 46.08167563812802, "lon": 14.469351993139137 }
  },
  {
    "int_id": 4722,
    "ref_id": "204281",
    "name": "Pod Debnim vrhom",
    "center": 1,
    "location": { "lat": 46.06339308871052, "lon": 14.624406278896627 }
  },
  {
    "int_id": 2159,
    "ref_id": "403031",
    "name": "Pod Golovcem",
    "center": 1,
    "location": { "lat": 46.04857236331428, "lon": 14.5298740729578 }
  },
  {
    "int_id": 3491,
    "ref_id": "504071",
    "name": "Pod Hribom",
    "center": 1,
    "location": { "lat": 46.00632793648219, "lon": 14.549159935945315 }
  },
  {
    "int_id": 4512,
    "ref_id": "804193",
    "name": "Pod Kamno Gorico",
    "center": 1,
    "location": { "lat": 46.07427089910008, "lon": 14.455650203891988 }
  },
  {
    "int_id": 3261,
    "ref_id": "804191",
    "name": "Pod Kamno gorico",
    "center": 1,
    "location": { "lat": 46.073710150479236, "lon": 14.456114673235554 }
  },
  {
    "int_id": 2196,
    "ref_id": "702011",
    "name": "Pod Rožnikom",
    "center": 1,
    "location": { "lat": 46.05117670677029, "lon": 14.492209329426856 }
  },
  {
    "int_id": 4597,
    "ref_id": "404171",
    "name": "Pod Sivnikom",
    "center": 1,
    "location": { "lat": 46.035966455676345, "lon": 14.624598451694707 }
  },
  {
    "int_id": 2585,
    "ref_id": "404141",
    "name": "Pod Urhom",
    "center": 1,
    "location": { "lat": 46.038228016405355, "lon": 14.589091083826153 }
  },
  {
    "int_id": 3551,
    "ref_id": "505111",
    "name": "Pod gozdom",
    "center": 1,
    "location": { "lat": 45.95915836228816, "lon": 14.650021614601537 }
  },
  {
    "int_id": 1922,
    "ref_id": "804031",
    "name": "Podgora",
    "center": 1,
    "location": { "lat": 46.09261016520109, "lon": 14.4692967511808 }
  },
  { "int_id": 4004, "ref_id": "756111", "name": "Podgora pri Verdu", "center": 1 },
  {
    "int_id": 4476,
    "ref_id": "204221",
    "name": "Podgorica",
    "center": 1,
    "location": { "lat": 46.0981273306234, "lon": 14.586968215752174 }
  },
  {
    "int_id": 3701,
    "ref_id": "605041",
    "name": "Podgozd",
    "center": 1,
    "location": { "lat": 45.93200742598269, "lon": 14.539114509787492 }
  },
  { "int_id": 4422, "ref_id": "999881", "name": "Podlesec/Žireh", "center": 1 },
  { "int_id": 4085, "ref_id": "776111", "name": "Podlipa", "center": 1 },
  { "int_id": 4083, "ref_id": "776121", "name": "Podlipa Kovtrov z.", "center": 1 },
  { "int_id": 4091, "ref_id": "776081", "name": "Podlipa Podlogar", "center": 1 },
  { "int_id": 4095, "ref_id": "776061", "name": "Podlipa Stope", "center": 1 },
  { "int_id": 4087, "ref_id": "776101", "name": "Podlipa Vičič", "center": 1 },
  { "int_id": 4079, "ref_id": "777021", "name": "Podlipa Zukancov z.", "center": 1 },
  { "int_id": 4093, "ref_id": "776071", "name": "Podlipa hrast", "center": 1 },
  { "int_id": 4089, "ref_id": "776091", "name": "Podlipa pri tran.", "center": 1 },
  { "int_id": 4081, "ref_id": "777011", "name": "Podlipa Županov z.", "center": 1 },
  {
    "int_id": 2765,
    "ref_id": "415021",
    "name": "Podlipoglav",
    "center": 1,
    "location": { "lat": 46.01701691743557, "lon": 14.623303980920252 }
  },
  {
    "int_id": 2205,
    "ref_id": "102051",
    "name": "Podmilščakova",
    "center": 1,
    "location": { "lat": 46.069824376703735, "lon": 14.503483142445923 }
  },
  {
    "int_id": 2186,
    "ref_id": "703051",
    "name": "Podmornica",
    "center": 1,
    "location": { "lat": 46.047309051159544, "lon": 14.464691467969994 }
  },
  {
    "int_id": 3932,
    "ref_id": "715121",
    "name": "Podolnica",
    "center": 1,
    "location": { "lat": 46.02453951107989, "lon": 14.328623731390147 }
  },
  {
    "int_id": 4703,
    "ref_id": "745121",
    "name": "Podpeč",
    "center": 1,
    "location": { "lat": 45.9746278425991, "lon": 14.420005506059391 }
  },
  {
    "int_id": 3823,
    "ref_id": "745051",
    "name": "Podpeč",
    "center": 1,
    "location": { "lat": 45.97350463255093, "lon": 14.421029732146701 }
  },
  {
    "int_id": 3821,
    "ref_id": "745071",
    "name": "Podpeč/Lj. Jereb",
    "center": 1,
    "location": { "lat": 45.966540471962624, "lon": 14.411543645244219 }
  },
  {
    "int_id": 3884,
    "ref_id": "725121",
    "name": "Podreber/Polh.G.",
    "center": 1,
    "location": { "lat": 46.06027288229668, "lon": 14.331835388412445 }
  },
  {
    "int_id": 3857,
    "ref_id": "715031",
    "name": "Podsmreka GD",
    "center": 1,
    "location": { "lat": 46.03917217621194, "lon": 14.429079377802337 }
  },
  {
    "int_id": 3949,
    "ref_id": "715041",
    "name": "Podsmreka Rotar",
    "center": 1,
    "location": { "lat": 46.032709889044675, "lon": 14.432227495277441 }
  },
  {
    "int_id": 3947,
    "ref_id": "715051",
    "name": "Podsmreka pri Gorjancu",
    "center": 1,
    "location": { "lat": 46.02855678534663, "lon": 14.433394910277944 }
  },
  { "int_id": 4104, "ref_id": "506041", "name": "Podsmreka pri Višnji G.", "center": 1 },
  {
    "int_id": 4593,
    "ref_id": "704181",
    "name": "Podvozna pot",
    "center": 1,
    "location": { "lat": 46.03565437693985, "lon": 14.462308057524293 }
  },
  {
    "int_id": 2211,
    "ref_id": "103061",
    "name": "Pohorskega bataljona",
    "center": 1,
    "location": { "lat": 46.08225185581306, "lon": 14.507255855341901 }
  },
  {
    "int_id": 1964,
    "ref_id": "203011",
    "name": "Pokopališka",
    "center": 1,
    "location": { "lat": 46.065486858846015, "lon": 14.52936049083837 }
  },
  {
    "int_id": 2256,
    "ref_id": "104121",
    "name": "Polanškova",
    "center": 1,
    "location": { "lat": 46.10594582952524, "lon": 14.525808266559102 }
  },
  {
    "int_id": 2105,
    "ref_id": "402021",
    "name": "Poliklinika",
    "center": 1,
    "location": { "lat": 46.05366048907807, "lon": 14.51915704119255 }
  },
  {
    "int_id": 1983,
    "ref_id": "502011",
    "name": "Poljanska",
    "center": 1,
    "location": { "lat": 46.05042657993959, "lon": 14.514423671329908 }
  },
  {
    "int_id": 2122,
    "ref_id": "304071",
    "name": "Polje",
    "center": 1,
    "location": { "lat": 46.05404100432389, "lon": 14.582679330607538 }
  },
  {
    "int_id": 3733,
    "ref_id": "825031",
    "name": "Polje obračališče",
    "center": 1,
    "location": { "lat": 46.162750234162864, "lon": 14.491454677949124 }
  },
  {
    "int_id": 2124,
    "ref_id": "304081",
    "name": "Polje-kolodvor",
    "center": 1,
    "location": { "lat": 46.057403697621375, "lon": 14.583492934078988 }
  },
  { "int_id": 4107, "ref_id": "507011", "name": "Polževo K", "center": 1 },
  {
    "int_id": 3622,
    "ref_id": "546031",
    "name": "Ponova vas",
    "center": 1,
    "location": { "lat": 45.93892691045035, "lon": 14.630749154617376 }
  },
  {
    "int_id": 4466,
    "ref_id": "703191",
    "name": "Pot Rdečega križa",
    "center": 1,
    "location": { "lat": 46.04717064256256, "lon": 14.461738176848423 }
  },
  {
    "int_id": 2112,
    "ref_id": "303051",
    "name": "Pot na Fužine",
    "center": 1,
    "location": { "lat": 46.056254240329096, "lon": 14.549634830452476 }
  },
  {
    "int_id": 1913,
    "ref_id": "603071",
    "name": "Pot na Rakovo jelšo",
    "center": 1,
    "location": { "lat": 46.032878940714966, "lon": 14.50136418006467 }
  },
  {
    "int_id": 2260,
    "ref_id": "104141",
    "name": "Pot v Hrastovec",
    "center": 1,
    "location": { "lat": 46.10835280247629, "lon": 14.53216479962086 }
  },
  {
    "int_id": 2258,
    "ref_id": "104131",
    "name": "Pot v Smrečje",
    "center": 1,
    "location": { "lat": 46.10926238166398, "lon": 14.527637278556494 }
  },
  {
    "int_id": 4723,
    "ref_id": "204291",
    "name": "Pot v mejah",
    "center": 1,
    "location": { "lat": 46.061154077792686, "lon": 14.617186903946969 }
  },
  {
    "int_id": 3730,
    "ref_id": "825011",
    "name": "Povodje",
    "center": 1,
    "location": { "lat": 46.1414809100704, "lon": 14.478158985059586 }
  },
  {
    "int_id": 1945,
    "ref_id": "601011",
    "name": "Pošta",
    "center": 1,
    "location": { "lat": 46.05212220533105, "lon": 14.503428625979874 }
  },
  {
    "int_id": 2170,
    "ref_id": "404041",
    "name": "Pošta Dobrunje",
    "center": 1,
    "location": { "lat": 46.04200877750188, "lon": 14.586331462591874 }
  },
  { "int_id": 4143, "ref_id": "508071", "name": "Praproče pri Temenici", "center": 1 },
  {
    "int_id": 4166,
    "ref_id": "526021",
    "name": "Predole K",
    "center": 1,
    "location": { "lat": 45.912332629703926, "lon": 14.67971329917879 }
  },
  {
    "int_id": 4146,
    "ref_id": "517031",
    "name": "Predstruge",
    "center": 1,
    "location": { "lat": 45.85808560761026, "lon": 14.678769073837142 }
  },
  {
    "int_id": 2115,
    "ref_id": "304011",
    "name": "Preglov trg",
    "center": 1,
    "location": { "lat": 46.05472093285601, "lon": 14.55909787156293 }
  },
  {
    "int_id": 1876,
    "ref_id": "202021",
    "name": "Prekmurska",
    "center": 1,
    "location": { "lat": 46.064611571457924, "lon": 14.515894713735367 }
  },
  {
    "int_id": 3815,
    "ref_id": "746011",
    "name": "Preserje pod Krimom",
    "center": 1,
    "location": { "lat": 45.95509408448606, "lon": 14.415963057868854 }
  },
  {
    "int_id": 4514,
    "ref_id": "815151",
    "name": "Preska",
    "center": 1,
    "location": { "lat": 46.13467572589646, "lon": 14.411715499936468 }
  },
  {
    "int_id": 4022,
    "ref_id": "756011",
    "name": "Prevalje pod Krimom",
    "center": 1,
    "location": { "lat": 45.962725609897774, "lon": 14.39197786664027 }
  },
  {
    "int_id": 3431,
    "ref_id": "406031",
    "name": "Prežganje",
    "center": 1,
    "location": { "lat": 46.020096481297735, "lon": 14.741053053426862 }
  },
  {
    "int_id": 3429,
    "ref_id": "406041",
    "name": "Prežganje šola",
    "center": 1,
    "location": { "lat": 46.0233534522108, "lon": 14.730337471804466 }
  },
  {
    "int_id": 3459,
    "ref_id": "415071",
    "name": "Pri Dogonivar",
    "center": 1,
    "location": { "lat": 45.98930430948968, "lon": 14.657580341552565 }
  },
  {
    "int_id": 3462,
    "ref_id": "415091",
    "name": "Pri Dolencu",
    "center": 1,
    "location": { "lat": 46.017812402851646, "lon": 14.64018105719919 }
  },
  {
    "int_id": 3562,
    "ref_id": "604051",
    "name": "Pri Maranzu",
    "center": 1,
    "location": { "lat": 46.007618070428656, "lon": 14.514378165020856 }
  },
  {
    "int_id": 3971,
    "ref_id": "704081",
    "name": "Pri Poku",
    "center": 1,
    "location": { "lat": 46.024003181713724, "lon": 14.41795245301445 }
  },
  {
    "int_id": 3461,
    "ref_id": "415081",
    "name": "Primožev ovinek",
    "center": 1,
    "location": { "lat": 45.9917886180091, "lon": 14.658498161464081 }
  },
  {
    "int_id": 2255,
    "ref_id": "104113",
    "name": "Primožičeva",
    "center": 1,
    "location": { "lat": 46.10292286821746, "lon": 14.530340944406012 }
  },
  {
    "int_id": 2016,
    "ref_id": "602111",
    "name": "Privoz",
    "center": 1,
    "location": { "lat": 46.044096145637084, "lon": 14.511264978449255 }
  },
  {
    "int_id": 1924,
    "ref_id": "804021",
    "name": "Prušnikova",
    "center": 1,
    "location": { "lat": 46.08984503750159, "lon": 14.471748850291709 }
  },
  {
    "int_id": 4622,
    "ref_id": "804231",
    "name": "Pržanec",
    "center": 1,
    "location": { "lat": 46.08615707059771, "lon": 14.459624832933125 }
  },
  {
    "int_id": 2325,
    "ref_id": "103041",
    "name": "Puhova",
    "center": 1,
    "location": { "lat": 46.07646612125903, "lon": 14.519466387782696 }
  },
  {
    "int_id": 4610,
    "ref_id": "746063",
    "name": "RAKITNA obrač.",
    "center": 1,
    "location": { "lat": 45.8904388735989, "lon": 14.434775771979906 }
  },
  {
    "int_id": 2030,
    "ref_id": "504031",
    "name": "RUDNIK",
    "center": 1,
    "location": { "lat": 46.01798615512686, "lon": 14.5439505431305 }
  },
  { "int_id": 4137, "ref_id": "508041", "name": "Radohova vas/Šentvidu", "center": 1 },
  {
    "int_id": 3806,
    "ref_id": "746061",
    "name": "Rakitna",
    "center": 1,
    "location": { "lat": 45.89093278154391, "lon": 14.439739780528926 }
  },
  {
    "int_id": 2020,
    "ref_id": "503021",
    "name": "Rakovnik",
    "center": 1,
    "location": { "lat": 46.03632542422461, "lon": 14.522787455065997 }
  },
  {
    "int_id": 4524,
    "ref_id": "815211",
    "name": "Rakovnik pri Sori",
    "center": 1,
    "location": { "lat": 46.14200135902536, "lon": 14.382169457012006 }
  },
  {
    "int_id": 2162,
    "ref_id": "403061",
    "name": "Rast",
    "center": 1,
    "location": { "lat": 46.046991411258524, "lon": 14.551440553515336 }
  },
  {
    "int_id": 3541,
    "ref_id": "505051",
    "name": "Razdrto",
    "center": 1,
    "location": { "lat": 45.97856316123837, "lon": 14.604318464689937 }
  },
  {
    "int_id": 3862,
    "ref_id": "714041",
    "name": "Razori K",
    "center": 1,
    "location": { "lat": 46.050705373320255, "lon": 14.424746243318769 }
  },
  {
    "int_id": 3945,
    "ref_id": "714031",
    "name": "Razori Rogovilc",
    "center": 1,
    "location": { "lat": 46.048920439999335, "lon": 14.435345147784535 }
  },
  {
    "int_id": 2090,
    "ref_id": "100021",
    "name": "Razstavišče",
    "center": 1,
    "location": { "lat": 46.06070508378646, "lon": 14.507092549080953 }
  },
  { "int_id": 4414, "ref_id": "999841", "name": "Račeva", "center": 1 },
  {
    "int_id": 2294,
    "ref_id": "104211",
    "name": "Rašica",
    "center": 1,
    "location": { "lat": 46.12713151937206, "lon": 14.492878520954601 }
  },
  {
    "int_id": 2232,
    "ref_id": "204161",
    "name": "Reaktor",
    "center": 1,
    "location": { "lat": 46.09104650493078, "lon": 14.596382775839258 }
  },
  {
    "int_id": 3535,
    "ref_id": "505021",
    "name": "Reber pri Škofljici",
    "center": 1,
    "location": { "lat": 45.98609767428451, "lon": 14.58772493193047 }
  },
  {
    "int_id": 3736,
    "ref_id": "825041",
    "name": "Repnje Benk",
    "center": 1,
    "location": { "lat": 46.16577427660419, "lon": 14.487064637336209 }
  },
  {
    "int_id": 3740,
    "ref_id": "825061",
    "name": "Repnje kapelica",
    "center": 1,
    "location": { "lat": 46.17673048045418, "lon": 14.484309002222396 }
  },
  {
    "int_id": 3738,
    "ref_id": "825051",
    "name": "Repnje samostan",
    "center": 1,
    "location": { "lat": 46.171426625572934, "lon": 14.481061933255825 }
  },
  {
    "int_id": 2067,
    "ref_id": "104111",
    "name": "Rogovilc",
    "center": 1,
    "location": { "lat": 46.10227468374867, "lon": 14.529629312794771 }
  },
  {
    "int_id": 1998,
    "ref_id": "203021",
    "name": "Rožičeva",
    "center": 1,
    "location": { "lat": 46.06347739264441, "lon": 14.53189745040819 }
  },
  {
    "int_id": 2192,
    "ref_id": "703011",
    "name": "Rožna dolina",
    "center": 1,
    "location": { "lat": 46.048010689253445, "lon": 14.482636229413549 }
  },
  {
    "int_id": 3507,
    "ref_id": "504033",
    "name": "Rudnik",
    "center": 1,
    "location": { "lat": 46.018463756684916, "lon": 14.543289477762341 }
  },
  {
    "int_id": 2117,
    "ref_id": "304031",
    "name": "Rusjanov trg",
    "center": 1,
    "location": { "lat": 46.05471778081735, "lon": 14.56400646947843 }
  },
  {
    "int_id": 2075,
    "ref_id": "103131",
    "name": "Ruski car",
    "center": 1,
    "location": { "lat": 46.09021904393673, "lon": 14.513757789007743 }
  },
  {
    "int_id": 2221,
    "ref_id": "104011",
    "name": "SAVLJE",
    "center": 1,
    "location": { "lat": 46.09518743016284, "lon": 14.503245994856794 }
  },
  {
    "int_id": 4529,
    "ref_id": "816051",
    "name": "SORA obrač.",
    "center": 1,
    "location": { "lat": 46.143833488256114, "lon": 14.367892854187351 }
  },
  {
    "int_id": 2179,
    "ref_id": "404091",
    "name": "SOSTRO",
    "center": 1,
    "location": { "lat": 46.03181885241501, "lon": 14.604339007216096 }
  },
  {
    "int_id": 4649,
    "ref_id": "804241",
    "name": "STANEŽIČE P+R",
    "center": 1,
    "location": { "lat": 46.10621571790426, "lon": 14.44807069687277 }
  },
  {
    "int_id": 3643,
    "ref_id": "804361",
    "name": "STANEŽIČE nas.",
    "center": 1,
    "location": { "lat": 46.10870347444604, "lon": 14.436547799566975 }
  },
  {
    "int_id": 2835,
    "ref_id": "415011",
    "name": "Sadinja vas",
    "center": 1,
    "location": { "lat": 46.02172880700544, "lon": 14.61216646560329 }
  },
  {
    "int_id": 2241,
    "ref_id": "102011",
    "name": "Samova",
    "center": 1,
    "location": { "lat": 46.067117414060924, "lon": 14.505316995004797 }
  },
  {
    "int_id": 3545,
    "ref_id": "505071",
    "name": "Sap",
    "center": 1,
    "location": { "lat": 45.973050955845835, "lon": 14.620625379332264 }
  },
  {
    "int_id": 2147,
    "ref_id": "204201",
    "name": "Saturnus",
    "center": 1,
    "location": { "lat": 46.06727519035741, "lon": 14.608845089764369 }
  },
  {
    "int_id": 2071,
    "ref_id": "104051",
    "name": "Sava",
    "center": 1,
    "location": { "lat": 46.10093677813357, "lon": 14.521683373301377 }
  },
  {
    "int_id": 1878,
    "ref_id": "202031",
    "name": "Savske stolpnice",
    "center": 1,
    "location": { "lat": 46.06578197576265, "lon": 14.521643034709525 }
  },
  {
    "int_id": 1968,
    "ref_id": "202041",
    "name": "Savsko naselje",
    "center": 1,
    "location": { "lat": 46.0622649037084, "lon": 14.524187542038904 }
  },
  {
    "int_id": 2837,
    "ref_id": "415041",
    "name": "Selo",
    "center": 1,
    "location": { "lat": 45.99931528549641, "lon": 14.657190356251945 }
  },
  {
    "int_id": 3756,
    "ref_id": "826101",
    "name": "Selo Mali Dunaj",
    "center": 1,
    "location": { "lat": 46.160622939612885, "lon": 14.512080356892755 }
  },
  { "int_id": 4141, "ref_id": "508061", "name": "Selo pri Radohovi vasi", "center": 1 },
  {
    "int_id": 3754,
    "ref_id": "826051",
    "name": "Selo pri Vodicah",
    "center": 1,
    "location": { "lat": 46.16370363713626, "lon": 14.516941759168292 }
  },
  {
    "int_id": 2141,
    "ref_id": "304131",
    "name": "Silos",
    "center": 1,
    "location": { "lat": 46.0578314047707, "lon": 14.606188768361442 }
  },
  { "int_id": 3964, "ref_id": "705061", "name": "Sinja Gorica", "center": 1 },
  { "int_id": 3963, "ref_id": "705071", "name": "Sinja Gorica avt.", "center": 1 },
  {
    "int_id": 3732,
    "ref_id": "825021",
    "name": "Skaručna",
    "center": 1,
    "location": { "lat": 46.15362911200718, "lon": 14.48368634408689 }
  },
  {
    "int_id": 1934,
    "ref_id": "803011",
    "name": "Slovenija avto",
    "center": 1,
    "location": { "lat": 46.073039911444205, "lon": 14.48629479193425 }
  },
  {
    "int_id": 2333,
    "ref_id": "204111",
    "name": "Slovenijales",
    "center": 1,
    "location": { "lat": 46.09391620779374, "lon": 14.55260000914814 }
  },
  {
    "int_id": 2079,
    "ref_id": "103071",
    "name": "Smelt",
    "center": 1,
    "location": { "lat": 46.08249032506851, "lon": 14.513050795400382 }
  },
  {
    "int_id": 3772,
    "ref_id": "815121",
    "name": "Smlednik šola",
    "center": 1,
    "location": { "lat": 46.1673343603887, "lon": 14.428713612522607 }
  },
  {
    "int_id": 3896,
    "ref_id": "737011",
    "name": "Smolnik Praprotnik",
    "center": 1,
    "location": { "lat": 46.076658848704334, "lon": 14.275027767387778 }
  },
  {
    "int_id": 3894,
    "ref_id": "736051",
    "name": "Smolnik Setnik",
    "center": 1,
    "location": { "lat": 46.0688119566764, "lon": 14.272540675897252 }
  },
  {
    "int_id": 3892,
    "ref_id": "736041",
    "name": "Smolnik Zalog",
    "center": 1,
    "location": { "lat": 46.06643868437368, "lon": 14.277768932767096 }
  },
  {
    "int_id": 3898,
    "ref_id": "737021",
    "name": "Smolnik nad Hribom",
    "center": 1,
    "location": { "lat": 46.08308973290079, "lon": 14.274026890943453 }
  },
  {
    "int_id": 3890,
    "ref_id": "736031",
    "name": "Smolnik žaga",
    "center": 1,
    "location": { "lat": 46.072525238439425, "lon": 14.289457836470472 }
  },
  {
    "int_id": 3427,
    "ref_id": "406051",
    "name": "Smrekarjevo",
    "center": 1,
    "location": { "lat": 46.0287714181714, "lon": 14.726505924160463 }
  },
  { "int_id": 4073, "ref_id": "777051", "name": "Smrečje/Vrh.pri Kapelici", "center": 1 },
  { "int_id": 4072, "ref_id": "777061", "name": "Smrečje/Vrhniko", "center": 1 },
  { "int_id": 4077, "ref_id": "777031", "name": "Smrečje/Vrhniko Samija", "center": 1 },
  { "int_id": 4075, "ref_id": "777041", "name": "Smrečje/Vrhniko pri Mihu", "center": 1 },
  { "int_id": 4428, "ref_id": "999911", "name": "Smrečje/Vrhniko vrh", "center": 1 },
  {
    "int_id": 4162,
    "ref_id": "515041",
    "name": "Smrjene",
    "center": 1,
    "location": { "lat": 45.92925070026033, "lon": 14.577803611523414 }
  },
  {
    "int_id": 4256,
    "ref_id": "515091",
    "name": "Smrjene 1",
    "center": 1,
    "location": { "lat": 45.93165264475528, "lon": 14.57780561593127 }
  },
  {
    "int_id": 4258,
    "ref_id": "515081",
    "name": "Smrjene 2",
    "center": 1,
    "location": { "lat": 45.933395152784264, "lon": 14.582854292492046 }
  },
  {
    "int_id": 4260,
    "ref_id": "515071",
    "name": "Smrjene 3",
    "center": 1,
    "location": { "lat": 45.93627831802657, "lon": 14.591334632037839 }
  },
  {
    "int_id": 4262,
    "ref_id": "515061",
    "name": "Smrjene 4",
    "center": 1,
    "location": { "lat": 45.950517384606485, "lon": 14.573548145435051 }
  },
  {
    "int_id": 2153,
    "ref_id": "204071",
    "name": "Sneberje",
    "center": 1,
    "location": { "lat": 46.077914688554394, "lon": 14.569235019381136 }
  },
  {
    "int_id": 4726,
    "ref_id": "204321",
    "name": "Sneberska",
    "center": 1,
    "location": { "lat": 46.07035009546487, "lon": 14.59695580896906 }
  },
  {
    "int_id": 4528,
    "ref_id": "816041",
    "name": "Sora",
    "center": 1,
    "location": { "lat": 46.14167535826707, "lon": 14.373857848923329 }
  },
  { "int_id": 4070, "ref_id": "106051", "name": "Sp. Brnik", "center": 1 },
  {
    "int_id": 4439,
    "ref_id": "104331",
    "name": "Sp. Gameljne 1",
    "center": 1,
    "location": { "lat": 46.11659582776649, "lon": 14.506028428574705 }
  },
  {
    "int_id": 4441,
    "ref_id": "104341",
    "name": "Sp. Gameljne 2",
    "center": 1,
    "location": { "lat": 46.12062465498506, "lon": 14.50374166043879 }
  },
  {
    "int_id": 4443,
    "ref_id": "104351",
    "name": "Sp. Gameljne 3",
    "center": 1,
    "location": { "lat": 46.12309565037868, "lon": 14.502625724250775 }
  },
  {
    "int_id": 3661,
    "ref_id": "815021",
    "name": "Sp. Pirniče",
    "center": 1,
    "location": { "lat": 46.13428736240711, "lon": 14.438942111339838 }
  },
  {
    "int_id": 3636,
    "ref_id": "536031",
    "name": "Sp. Slivnica",
    "center": 1,
    "location": { "lat": 45.93210988242296, "lon": 14.655645764255892 }
  },
  {
    "int_id": 2236,
    "ref_id": "803171",
    "name": "Spar",
    "center": 1,
    "location": { "lat": 46.076807285588814, "lon": 14.466866257877827 }
  },
  {
    "int_id": 2028,
    "ref_id": "504021",
    "name": "Spodnji Rudnik",
    "center": 1,
    "location": { "lat": 46.02385012951816, "lon": 14.540021674750552 }
  },
  {
    "int_id": 3886,
    "ref_id": "725131",
    "name": "Sr.vas pri Polh.G.",
    "center": 1,
    "location": { "lat": 46.06028195618267, "lon": 14.326066240355326 }
  },
  {
    "int_id": 2149,
    "ref_id": "202091",
    "name": "Središka",
    "center": 1,
    "location": { "lat": 46.0626259417796, "lon": 14.52499438697918 }
  },
  { "int_id": 4034, "ref_id": "776031", "name": "St.Vrhnika K", "center": 1 },
  { "int_id": 4102, "ref_id": "506031", "name": "St.trg/Višnji G.", "center": 1 },
  {
    "int_id": 2085,
    "ref_id": "102041",
    "name": "Stadion",
    "center": 1,
    "location": { "lat": 46.0693593617045, "lon": 14.510152067771864 }
  },
  {
    "int_id": 3779,
    "ref_id": "625031",
    "name": "Staje",
    "center": 1,
    "location": { "lat": 45.95739028327211, "lon": 14.5135443360438 }
  },
  {
    "int_id": 2223,
    "ref_id": "804061",
    "name": "Stanežiče",
    "center": 1,
    "location": { "lat": 46.11045742511962, "lon": 14.44590034457731 }
  },
  {
    "int_id": 4662,
    "ref_id": "104371",
    "name": "Stara Ježica",
    "center": 1,
    "location": { "lat": 46.09456987959653, "lon": 14.51573917151484 }
  },
  {
    "int_id": 1938,
    "ref_id": "802011",
    "name": "Stara cerkev",
    "center": 1,
    "location": { "lat": 46.06385852893462, "lon": 14.494389289092107 }
  },
  {
    "int_id": 3575,
    "ref_id": "505101",
    "name": "Stara pošta",
    "center": 1,
    "location": { "lat": 45.96169424642063, "lon": 14.644399093401432 }
  },
  { "int_id": 4117, "ref_id": "507051", "name": "Stična K", "center": 1 },
  { "int_id": 4114, "ref_id": "507041", "name": "Stična KZ", "center": 1 },
  {
    "int_id": 2077,
    "ref_id": "103101",
    "name": "Stožice",
    "center": 1,
    "location": { "lat": 46.08596991078942, "lon": 14.513817982849917 }
  },
  {
    "int_id": 3691,
    "ref_id": "626021",
    "name": "Strahomer",
    "center": 1,
    "location": { "lat": 45.943302666400314, "lon": 14.488934107527294 }
  },
  {
    "int_id": 3315,
    "ref_id": "502031",
    "name": "Streliška",
    "center": 1,
    "location": { "lat": 46.04462701968503, "lon": 14.516804515092872 }
  },
  {
    "int_id": 2018,
    "ref_id": "503011",
    "name": "Strelišče",
    "center": 1,
    "location": { "lat": 46.03945449564851, "lon": 14.516981434478327 }
  },
  {
    "int_id": 2120,
    "ref_id": "304061",
    "name": "Studenec",
    "center": 1,
    "location": { "lat": 46.05457950916812, "lon": 14.57582352734088 }
  },
  {
    "int_id": 3919,
    "ref_id": "727021",
    "name": "Suhi Dol/Planino",
    "center": 1,
    "location": { "lat": 46.04545010579592, "lon": 14.20771385244516 }
  },
  {
    "int_id": 3852,
    "ref_id": "835031",
    "name": "Svetje",
    "center": 1,
    "location": { "lat": 46.14619343781737, "lon": 14.407912137636593 }
  },
  {
    "int_id": 4363,
    "ref_id": "702031",
    "name": "Svetčeva",
    "center": 1,
    "location": { "lat": 46.052621834257266, "lon": 14.488062008554895 }
  },
  {
    "int_id": 2308,
    "ref_id": "203081",
    "name": "TOMAČEVO",
    "center": 1,
    "location": { "lat": 46.07949528243269, "lon": 14.536568645442566 }
  },
  {
    "int_id": 1909,
    "ref_id": "602121",
    "name": "TRNOVO",
    "center": 1,
    "location": { "lat": 46.04101750157601, "lon": 14.509157371820573 }
  },
  {
    "int_id": 2956,
    "ref_id": "406081",
    "name": "TUJI GRM",
    "center": 1,
    "location": { "lat": 46.05111289097027, "lon": 14.720870964973578 }
  },
  {
    "int_id": 1858,
    "ref_id": "804101",
    "name": "Tabor",
    "center": 1,
    "location": { "lat": 46.10850940250768, "lon": 14.461669782292986 }
  },
  {
    "int_id": 2289,
    "ref_id": "804151",
    "name": "Tacen",
    "center": 1,
    "location": { "lat": 46.12023718540408, "lon": 14.466486588232438 }
  },
  {
    "int_id": 2287,
    "ref_id": "804141",
    "name": "Tacenski most",
    "center": 1,
    "location": { "lat": 46.11774392619145, "lon": 14.461599014503241 }
  },
  {
    "int_id": 2045,
    "ref_id": "500011",
    "name": "Tavčarjeva",
    "center": 1,
    "location": { "lat": 46.054610713522045, "lon": 14.506776438329235 }
  },
  {
    "int_id": 3511,
    "ref_id": "603141",
    "name": "Tbilisijska",
    "center": 1,
    "location": { "lat": 46.033871794720696, "lon": 14.478327396029373 }
  },
  {
    "int_id": 4716,
    "ref_id": "603143",
    "name": "Tbilisijska",
    "center": 1,
    "location": { "lat": 46.0340570726012, "lon": 14.47730641428603 }
  },
  {
    "int_id": 1902,
    "ref_id": "803071",
    "name": "Tehnounion",
    "center": 1,
    "location": { "lat": 46.08587988642196, "lon": 14.480571838625808 }
  },
  { "int_id": 4144, "ref_id": "508081", "name": "Temenica", "center": 1 },
  {
    "int_id": 2305,
    "ref_id": "802061",
    "name": "Tiki",
    "center": 1,
    "location": { "lat": 46.0729429728986, "lon": 14.495112060417219 }
  },
  {
    "int_id": 1940,
    "ref_id": "801011",
    "name": "Tivoli",
    "center": 1,
    "location": { "lat": 46.06045472198922, "lon": 14.497145901387796 }
  },
  {
    "int_id": 1951,
    "ref_id": "602041",
    "name": "Tobačna",
    "center": 1,
    "location": { "lat": 46.047052842032365, "lon": 14.494305944748614 }
  },
  {
    "int_id": 2311,
    "ref_id": "203031",
    "name": "Tomačevska",
    "center": 1,
    "location": { "lat": 46.069494746649234, "lon": 14.527652491061373 }
  },
  {
    "int_id": 4692,
    "ref_id": "603211",
    "name": "Tomažičeva",
    "center": 1,
    "location": { "lat": 46.03880192231489, "lon": 14.475546689065151 }
  },
  {
    "int_id": 3687,
    "ref_id": "615061",
    "name": "Tomišelj",
    "center": 1,
    "location": { "lat": 45.963522939660926, "lon": 14.481730157148549 }
  },
  {
    "int_id": 3685,
    "ref_id": "615071",
    "name": "Tomišelj A",
    "center": 1,
    "location": { "lat": 45.97209905323496, "lon": 14.468160074830642 }
  },
  {
    "int_id": 3683,
    "ref_id": "615051",
    "name": "Tomišelj K",
    "center": 1,
    "location": { "lat": 45.96682451249184, "lon": 14.473456636720112 }
  },
  {
    "int_id": 2301,
    "ref_id": "103011",
    "name": "Toplarna",
    "center": 1,
    "location": { "lat": 46.07573048384052, "lon": 14.499949200614454 }
  },
  {
    "int_id": 2313,
    "ref_id": "102021",
    "name": "Topniška",
    "center": 1,
    "location": { "lat": 46.06716596197148, "lon": 14.514990821638943 }
  },
  { "int_id": 4058, "ref_id": "105081", "name": "Topole/Mengšu", "center": 1 },
  {
    "int_id": 2300,
    "ref_id": "103051",
    "name": "Tovarna Lek",
    "center": 1,
    "location": { "lat": 46.07931372201481, "lon": 14.501099474204587 }
  },
  {
    "int_id": 1994,
    "ref_id": "203061",
    "name": "Tovorni kolodvor",
    "center": 1,
    "location": { "lat": 46.061650155268616, "lon": 14.538932067703035 }
  },
  {
    "int_id": 1926,
    "ref_id": "804011",
    "name": "Trata",
    "center": 1,
    "location": { "lat": 46.08722968729211, "lon": 14.474056398762235 }
  },
  {
    "int_id": 4497,
    "ref_id": "204251",
    "name": "Trbeže",
    "center": 1,
    "location": { "lat": 46.07810105925791, "lon": 14.574924392946295 }
  },
  {
    "int_id": 3433,
    "ref_id": "406021",
    "name": "Trebeljevo",
    "center": 1,
    "location": { "lat": 46.01323065981923, "lon": 14.73828388065796 }
  },
  {
    "int_id": 3614,
    "ref_id": "535051",
    "name": "Troščine",
    "center": 1,
    "location": { "lat": 45.99384518917279, "lon": 14.697537210701658 }
  },
  { "int_id": 4046, "ref_id": "105021", "name": "Trzin", "center": 1 },
  { "int_id": 4044, "ref_id": "105011", "name": "Trzin Mlake", "center": 1 },
  { "int_id": 4042, "ref_id": "104241", "name": "Trzin ind. cona", "center": 1 },
  { "int_id": 4048, "ref_id": "105031", "name": "Trzin vas", "center": 1 },
  {
    "int_id": 1866,
    "ref_id": "803101",
    "name": "Tržnica Koseze",
    "center": 1,
    "location": { "lat": 46.07401870507057, "lon": 14.475841243393738 }
  },
  {
    "int_id": 1989,
    "ref_id": "303011",
    "name": "Tržnica Moste",
    "center": 1,
    "location": { "lat": 46.055832700339636, "lon": 14.534516355635697 }
  },
  {
    "int_id": 3752,
    "ref_id": "826041",
    "name": "Utik",
    "center": 1,
    "location": { "lat": 46.16906021926156, "lon": 14.513902061169475 }
  },
  { "int_id": 4212, "ref_id": "528031", "name": "V. Lese", "center": 1 },
  { "int_id": 4038, "ref_id": "776051", "name": "V. Ligojna", "center": 1 },
  {
    "int_id": 3630,
    "ref_id": "546071",
    "name": "V. Lipljene",
    "center": 1,
    "location": { "lat": 45.90386053033433, "lon": 14.637512506755765 }
  },
  {
    "int_id": 3593,
    "ref_id": "556051",
    "name": "V. Loka pri Viš. G.",
    "center": 1,
    "location": { "lat": 45.93808133263071, "lon": 14.723003054926329 }
  },
  {
    "int_id": 4509,
    "ref_id": "556103",
    "name": "V. Mlačevo",
    "center": 1,
    "location": { "lat": 45.93967340337023, "lon": 14.67486158678487 }
  },
  {
    "int_id": 3582,
    "ref_id": "556101",
    "name": "V. Mlačevo",
    "center": 1,
    "location": { "lat": 45.93971957226617, "lon": 14.675317412634758 }
  },
  {
    "int_id": 3584,
    "ref_id": "556031",
    "name": "V. Mlačevo ŽP",
    "center": 1,
    "location": { "lat": 45.94023070201245, "lon": 14.68528420428972 }
  },
  {
    "int_id": 3604,
    "ref_id": "535031",
    "name": "V. St. vas",
    "center": 1,
    "location": { "lat": 45.97746842522679, "lon": 14.676367090621685 }
  },
  {
    "int_id": 4168,
    "ref_id": "526031",
    "name": "V.Račna",
    "center": 1,
    "location": { "lat": 45.90273811395497, "lon": 14.689917553955029 }
  },
  {
    "int_id": 2158,
    "ref_id": "304101",
    "name": "VEVČE",
    "center": 1,
    "location": { "lat": 46.0495945273547, "lon": 14.593010054167978 }
  },
  {
    "int_id": 3743,
    "ref_id": "826011",
    "name": "VODICE",
    "center": 1,
    "location": { "lat": 46.186840966835426, "lon": 14.491292559464265 }
  },
  {
    "int_id": 3770,
    "ref_id": "815091",
    "name": "Valburga",
    "center": 1,
    "location": { "lat": 46.16876254233872, "lon": 14.433237164294386 }
  },
  {
    "int_id": 4518,
    "ref_id": "815181",
    "name": "Vaše",
    "center": 1,
    "location": { "lat": 46.13699725857606, "lon": 14.402136670653153 }
  },
  {
    "int_id": 2967,
    "ref_id": "415031",
    "name": "Veliki Lipoglav",
    "center": 1,
    "location": { "lat": 46.00537041195695, "lon": 14.653163909681858 }
  },
  {
    "int_id": 1911,
    "ref_id": "603081",
    "name": "Veliki štradon",
    "center": 1,
    "location": { "lat": 46.03775398784116, "lon": 14.504995742508244 }
  },
  { "int_id": 4002, "ref_id": "756121", "name": "Verd K", "center": 1 },
  {
    "int_id": 3722,
    "ref_id": "835011",
    "name": "Verje",
    "center": 1,
    "location": { "lat": 46.14313737877614, "lon": 14.42019665642766 }
  },
  {
    "int_id": 3758,
    "ref_id": "826061",
    "name": "Vesca",
    "center": 1,
    "location": { "lat": 46.15858905562012, "lon": 14.504408751965192 }
  },
  {
    "int_id": 4480,
    "ref_id": "304103",
    "name": "Vevče",
    "center": 1,
    "location": { "lat": 46.04947883124356, "lon": 14.592896957726621 }
  },
  {
    "int_id": 2637,
    "ref_id": "304121",
    "name": "Vevče Papirnica",
    "center": 1,
    "location": { "lat": 46.04745441366487, "lon": 14.59434847993441 }
  },
  {
    "int_id": 4374,
    "ref_id": "703181",
    "name": "Večna pot",
    "center": 1,
    "location": { "lat": 46.05133156518741, "lon": 14.479657656851 }
  },
  {
    "int_id": 1970,
    "ref_id": "202011",
    "name": "Viadukt",
    "center": 1,
    "location": { "lat": 46.05942274603376, "lon": 14.520605071702972 }
  },
  {
    "int_id": 4145,
    "ref_id": "517041",
    "name": "Videm/Dobrepolju",
    "center": 1,
    "location": { "lat": 45.84989261521257, "lon": 14.694408012941201 }
  },
  {
    "int_id": 3657,
    "ref_id": "815011",
    "name": "Vikrče",
    "center": 1,
    "location": { "lat": 46.12229171453433, "lon": 14.446147407334667 }
  },
  { "int_id": 4119, "ref_id": "507061", "name": "Vir pri Stični", "center": 1 },
  {
    "int_id": 3713,
    "ref_id": "606031",
    "name": "Visoko/Kureščkom",
    "center": 1,
    "location": { "lat": 45.885181084857976, "lon": 14.575118083131887 }
  },
  {
    "int_id": 2096,
    "ref_id": "703091",
    "name": "Vič",
    "center": 1,
    "location": { "lat": 46.042113146376586, "lon": 14.477912182291224 }
  },
  {
    "int_id": 2188,
    "ref_id": "703041",
    "name": "Viško polje",
    "center": 1,
    "location": { "lat": 46.04596891019297, "lon": 14.469581070524738 }
  },
  { "int_id": 4099, "ref_id": "506021", "name": "Višnja Gora", "center": 1 },
  {
    "int_id": 4648,
    "ref_id": "804251",
    "name": "Vižmarje",
    "center": 1,
    "location": { "lat": 46.10027383652843, "lon": 14.45944385917409 }
  },
  {
    "int_id": 3746,
    "ref_id": "826091",
    "name": "Vodice OŠ",
    "center": 1,
    "location": { "lat": 46.18519843043416, "lon": 14.495350316222119 }
  },
  {
    "int_id": 2207,
    "ref_id": "102071",
    "name": "Vodovodna",
    "center": 1,
    "location": { "lat": 46.07470062988702, "lon": 14.504473449370717 }
  },
  {
    "int_id": 3768,
    "ref_id": "826081",
    "name": "Vojsko",
    "center": 1,
    "location": { "lat": 46.14940555680276, "lon": 14.486463967707715 }
  },
  {
    "int_id": 3426,
    "ref_id": "406061",
    "name": "Volavlje",
    "center": 1,
    "location": { "lat": 46.032086329940675, "lon": 14.717364881807423 }
  },
  { "int_id": 4068, "ref_id": "106041", "name": "Vopovlje", "center": 1 },
  {
    "int_id": 3689,
    "ref_id": "625011",
    "name": "Vrbljene",
    "center": 1,
    "location": { "lat": 45.952166715887294, "lon": 14.490389695501793 }
  },
  {
    "int_id": 4247,
    "ref_id": "516061",
    "name": "Vrh nad Želimljami 1",
    "center": 1,
    "location": { "lat": 45.91050674169624, "lon": 14.590269542465302 }
  },
  {
    "int_id": 4244,
    "ref_id": "516071",
    "name": "Vrh nad Želimljami 2",
    "center": 1,
    "location": { "lat": 45.90834879240864, "lon": 14.591033833174242 }
  },
  {
    "int_id": 4248,
    "ref_id": "516051",
    "name": "Vrh nad Želimljami GD",
    "center": 1,
    "location": { "lat": 45.91137964725758, "lon": 14.589708851327611 }
  },
  {
    "int_id": 3961,
    "ref_id": "706011",
    "name": "Vrhnika",
    "center": 1,
    "location": { "lat": 45.96588938289711, "lon": 14.298217067122602 }
  },
  { "int_id": 4001, "ref_id": "705091", "name": "Vrhnika Jazon", "center": 1 },
  { "int_id": 4348, "ref_id": "999091", "name": "Vrhnika OŠ AM Slomška", "center": 1 },
  { "int_id": 3959, "ref_id": "776021", "name": "Vrhnika Voljč.", "center": 1 },
  { "int_id": 3989, "ref_id": "706021", "name": "Vrhnika hrib", "center": 1 },
  { "int_id": 3960, "ref_id": "776011", "name": "Vrhnika samop.", "center": 1 },
  { "int_id": 3962, "ref_id": "705081", "name": "Vrhnika vrt.", "center": 1 },
  {
    "int_id": 2180,
    "ref_id": "704031",
    "name": "Vrhovci",
    "center": 1,
    "location": { "lat": 46.044044285722826, "lon": 14.455311896449832 }
  },
  {
    "int_id": 3942,
    "ref_id": "716041",
    "name": "Vrzdenec",
    "center": 1,
    "location": { "lat": 46.019251267872065, "lon": 14.266843053075835 }
  },
  {
    "int_id": 2297,
    "ref_id": "203191",
    "name": "Yulon",
    "center": 1,
    "location": { "lat": 46.06231300454832, "lon": 14.549713214571232 }
  },
  {
    "int_id": 2128,
    "ref_id": "204081",
    "name": "ZADOBROVA",
    "center": 1,
    "location": { "lat": 46.07108112115488, "lon": 14.57998852186531 }
  },
  {
    "int_id": 4740,
    "ref_id": "204313",
    "name": "ZALOG",
    "center": 1,
    "location": { "lat": 46.063136503069785, "lon": 14.603369026762197 }
  },
  {
    "int_id": 3797,
    "ref_id": "606051",
    "name": "ZAPOTOK",
    "center": 1,
    "location": { "lat": 45.87643811090446, "lon": 14.568461164817945 }
  },
  {
    "int_id": 4582,
    "ref_id": "304141",
    "name": "ZD Polje",
    "center": 1,
    "location": { "lat": 46.05329017574558, "lon": 14.590281400300016 }
  },
  {
    "int_id": 1963,
    "ref_id": "202051",
    "name": "ZELENA JAMA",
    "center": 1,
    "location": { "lat": 46.063474424964966, "lon": 14.529409148151945 }
  },
  {
    "int_id": 3665,
    "ref_id": "815041",
    "name": "ZG. Pirniče",
    "center": 1,
    "location": { "lat": 46.140694201023166, "lon": 14.427643492831804 }
  },
  {
    "int_id": 3475,
    "ref_id": "204083",
    "name": "Zadobrova",
    "center": 1,
    "location": { "lat": 46.072606108576686, "lon": 14.58038389871765 }
  },
  {
    "int_id": 2174,
    "ref_id": "404061",
    "name": "Zadvor",
    "center": 1,
    "location": { "lat": 46.040266365939026, "lon": 14.597703248230575 }
  },
  {
    "int_id": 3638,
    "ref_id": "546011",
    "name": "Zadvor pri Grosupljem",
    "center": 1,
    "location": { "lat": 45.94461659434, "lon": 14.65166870484453 }
  },
  {
    "int_id": 4490,
    "ref_id": "404151",
    "name": "Zadvor-2",
    "center": 1,
    "location": { "lat": 46.03606670812974, "lon": 14.59614907153995 }
  },
  {
    "int_id": 4646,
    "ref_id": "517101",
    "name": "Zagorica/Dobrepolju",
    "center": 1,
    "location": { "lat": 45.84314112387256, "lon": 14.718550626733785 }
  },
  { "int_id": 4208, "ref_id": "528051", "name": "Zagradec/Krki", "center": 1 },
  {
    "int_id": 3934,
    "ref_id": "715131",
    "name": "Zaklanec/Horjulu",
    "center": 1,
    "location": { "lat": 46.023940694831595, "lon": 14.315928940189687 }
  },
  {
    "int_id": 1991,
    "ref_id": "303021",
    "name": "Zaloška",
    "center": 1,
    "location": { "lat": 46.056086169736496, "lon": 14.53982101834007 }
  },
  { "int_id": 3990, "ref_id": "706031", "name": "Zaplana", "center": 1 },
  {
    "int_id": 3853,
    "ref_id": "825081",
    "name": "Zapoge",
    "center": 1,
    "location": { "lat": 46.17959445690637, "lon": 14.465996174782209 }
  },
  {
    "int_id": 3745,
    "ref_id": "825111",
    "name": "Zapoge obračališče",
    "center": 1,
    "location": { "lat": 46.18039251268659, "lon": 14.471402101014231 }
  },
  {
    "int_id": 3711,
    "ref_id": "606041",
    "name": "Zapotok/Kureščkom K",
    "center": 1,
    "location": { "lat": 45.875917494926306, "lon": 14.556872678777243 }
  },
  {
    "int_id": 4489,
    "ref_id": "804381",
    "name": "Zapuže",
    "center": 1,
    "location": { "lat": 46.08337448459585, "lon": 14.458449616566275 }
  },
  {
    "int_id": 3027,
    "ref_id": "104171",
    "name": "Zasavska",
    "center": 1,
    "location": { "lat": 46.103959258757136, "lon": 14.545866574507311 }
  },
  {
    "int_id": 4446,
    "ref_id": "815141",
    "name": "Zavrh",
    "center": 1,
    "location": { "lat": 46.13574411722465, "lon": 14.444065275124656 }
  },
  {
    "int_id": 3847,
    "ref_id": "805071",
    "name": "Zbilje K",
    "center": 1,
    "location": { "lat": 46.15700232500542, "lon": 14.41170974358649 }
  },
  {
    "int_id": 3849,
    "ref_id": "805081",
    "name": "Zbilje jezero",
    "center": 1,
    "location": { "lat": 46.15855615580177, "lon": 14.417988116693252 }
  },
  {
    "int_id": 3845,
    "ref_id": "805061",
    "name": "Zbiljski Gaj",
    "center": 1,
    "location": { "lat": 46.150963702487346, "lon": 14.410967222049905 }
  },